name,navicode,latitude,longitude,type
스타벅스 역삼아레나빌딩,3232A1,37.501087,127.043069,1
스타벅스 논현역사거리,3232A2,37.510178,127.022223,1
스타벅스 신사역성일빌딩,3232A3,37.513931,127.020606,1
스타벅스 국기원사거리,3232A4,37.499517,127.031495,1
스타벅스 대치재경빌딩,3232A5,37.494668,127.062583,1
스타벅스 봉은사역,3232A6,37.515000,127.063196,1
스타벅스 압구정윤성빌딩,3232A7,37.522793,127.028601,1
스타벅스 코엑스별마당,3232A8,37.510150,127.060275,1
스타벅스 삼성역섬유센터R,3232A9,37.507750,127.060651,1
스타벅스 압구정R,3232A10,37.527367,127.033061,1
스타벅스 수서역R,3232A11,37.488008,127.102650,1
스타벅스 양재강남빌딩R,3232A12,37.485192,127.036685,1
스타벅스 선릉동신빌딩R,3232A13,37.505321,127.050409,1
스타벅스 봉은사로선정릉,3232A14,37.511317,127.048463,1
스타벅스 강남오거리,3232A15,37.502117,127.026672,1
스타벅스 스타필드코엑스몰R,3232A16,37.509990,127.061455,1
스타벅스 강남구청정문,3232A17,37.518181,127.045995,1
스타벅스 도곡공원,3232A18,37.492805,127.041309,1
스타벅스 강남R,3232A19,37.497711,127.028439,1
스타벅스 대치은마사거리,3232A20,37.498973,127.060172,1
스타벅스 청담영동대로,3232A21,37.522156,127.056449,1
스타벅스 압구정,3232A22,37.526283,127.029560,1
스타벅스 신사가로수,3232A23,37.521933,127.022521,1
스타벅스 청담스타R,3232A24,37.525216,127.041827,1
스타벅스 강남우성,3232A25,37.492396,127.030910,1
스타벅스 학동사거리,3232A26,37.522365,127.037954,1
스타벅스 대치사거리,3232A27,37.503331,127.058817,1
스타벅스 포스코사거리,3232A28,37.507531,127.057427,1
스타벅스 을지병원사거리,3232A29,37.519163,127.028645,1
스타벅스 신사역,3232A30,37.516202,127.020743,1
스타벅스 도곡역,3232A31,37.492167,127.057398,1
스타벅스 서울세관사거리,3232A32,37.514887,127.035653,1
스타벅스 청담사거리,3232A33,37.523635,127.046865,1
스타벅스 한티역,3232A34,37.496801,127.055055,1
스타벅스 역삼초교사거리,3232A35,37.494106,127.032997,1
스타벅스 코엑스몰,3232A36,37.513715,127.059245,1
스타벅스 가로수길,3232A37,37.523159,127.021625,1
스타벅스 역삼대로,3232A38,37.501623,127.039375,1
스타벅스 역삼포스코,3232A39,37.499721,127.033582,1
스타벅스 강남대로,3232A40,37.503140,127.025546,1
스타벅스 청담,3232A41,37.524363,127.051560,1
스타벅스 삼성도심공항,3232A42,37.509786,127.057913,1
스타벅스 삼성교,3232A43,37.507794,127.065170,1
스타벅스 학동역,3232A44,37.514649,127.030730,1
스타벅스 대치,3232A45,37.499662,127.062217,1
스타벅스 신세계푸드마켓도곡,3232A46,37.490298,127.054895,1
스타벅스 삼성,3232A47,37.506896,127.055719,1
스타벅스 선릉세화빌딩,3232A48,37.503776,127.051196,1
스타벅스 압구정역,3232A49,37.526741,127.028111,1
스타벅스 압구정로,3232A50,37.526800,127.034717,1
스타벅스 구역삼사거리,3232A51,37.495924,127.038865,1
스타벅스 큰길타워,3232A52,37.502367,127.040700,1
스타벅스 강남구청역,3232A53,37.516585,127.041243,1
스타벅스 대치역,3232A54,37.493554,127.061874,1
스타벅스 포이,3232A55,37.477811,127.045141,1
스타벅스 아크플레이스,3232A56,37.499720,127.034908,1
스타벅스 학여울역,3232A57,37.498036,127.068494,1
스타벅스 선정릉역,3232A58,37.510755,127.044560,1
스타벅스 삼성현대힐,3232A59,37.513504,127.052738,1
스타벅스 GS타워,3232A60,37.501859,127.037278,1
스타벅스 압구정미소,3232A61,37.523913,127.028072,1
스타벅스 선릉역,3232A62,37.503939,127.048514,1
스타벅스 코엑스사거리,3232A63,37.515351,127.060109,1
스타벅스 역삼럭키,3232A64,37.492209,127.039389,1
스타벅스 신압구정,3232A65,37.528115,127.036441,1
스타벅스 아크로힐스논현,3232A66,37.509013,127.040352,1
스타벅스 강남비젼타워,3232A67,37.496456,127.029689,1
스타벅스 압구정로데오역,3232A68,37.526549,127.040437,1
스타벅스 르네상스사거리,3232A69,37.502721,127.044308,1
스타벅스 포스코,3232A70,37.505765,127.058045,1
스타벅스 선릉로,3232A71,37.504981,127.046808,1
스타벅스 논현힐탑,3232A72,37.511593,127.032193,1
스타벅스 도산가로수길,3232A73,37.517362,127.023296,1
스타벅스 매봉역,3232A74,37.485910,127.045288,1
스타벅스 대치한티,3232A75,37.498482,127.052066,1
스타벅스 개포동,3232A76,37.482855,127.060715,1
스타벅스 수서역사거리,3232A77,37.487327,127.103140,1
스타벅스 코엑스아셈타워,3232A78,37.513019,127.059838,1
스타벅스 센터필드R,3232A79,37.503695,127.041721,1
스타벅스 도산사거리,3232A80,37.519660,127.034100,1
스타벅스 강남세곡,3232A81,37.467274,127.099930,1
스타벅스 대치삼성,3232A82,37.500313,127.066961,1
스타벅스 언주역,3232A83,37.507776,127.036588,1
스타벅스 강남역신분당역사,3232A84,37.497057,127.028181,1
스타벅스 삼성역,3232A85,37.509207,127.065609,1
스타벅스 테헤란로아남타워,3232A86,37.503830,127.044870,1
스타벅스 강남논현,3232A87,37.507898,127.023339,1
스타벅스 삼성동,3232A88,37.510843,127.063633,1
스타벅스 청담역,3232A89,37.519441,127.049553,1
스타벅스 압구정현대아파트,3232A90,37.525220,127.025660,1
스타벅스 강남청담빌딩,3232A91,37.517887,127.041375,1
스타벅스 역삼이마트,3232A92,37.499367,127.048425,1
스타벅스 강남세곡DT,3232A93,37.466994,127.118331,1
스타벅스 미아뉴타운,3232A94,37.618319,127.021072,1
스타벅스 강북구청사거리,3232A95,37.639988,127.027433,1
스타벅스 미아사거리역,3232A96,37.611809,127.030697,1
스타벅스 수유역,3232A97,37.638017,127.026135,1
스타벅스 미아역,3232A98,37.626148,127.026578,1
스타벅스 수유역5번출구,3232A99,37.636723,127.023322,1
스타벅스 파라스파라서울,3232A100,37.664196,127.010407,1
스타벅스 발산역사거리,3232A101,37.558509,126.835096,1
스타벅스 마곡역,3232A102,37.559611,126.826298,1
스타벅스 우장산역,3232A103,37.549510,126.836062,1
스타벅스 마곡사이언스타워R,3232A104,37.560526,126.833887,1
스타벅스 방화DT,3232A105,37.574457,126.816488,1
스타벅스 마곡나루역,3232A106,37.568130,126.826140,1
스타벅스 마곡GMG,3232A107,37.560487,126.829667,1
스타벅스 가양역,3232A108,37.561640,126.853327,1
스타벅스 화곡DT,3232A109,37.535011,126.863188,1
스타벅스 양천향교역,3232A110,37.566964,126.840731,1
스타벅스 화곡동,3232A111,37.540619,126.837388,1
스타벅스 등촌,3232A112,37.558204,126.844339,1
스타벅스 염창역,3232A113,37.547359,126.874436,1
스타벅스 발산역,3232A114,37.560301,126.839134,1
스타벅스 까치산역,3232A115,37.532324,126.846123,1
스타벅스 염창대로,3232A116,37.548548,126.878259,1
스타벅스 발산역5번출구,3232A117,37.557922,126.840540,1
스타벅스 화곡역8번출구,3232A118,37.542279,126.839300,1
스타벅스 강서우장산,3232A119,37.546611,126.836113,1
스타벅스 등촌대로,3232A120,37.550492,126.866510,1
스타벅스 가양역사거리,3232A121,37.560070,126.855372,1
스타벅스 내발산,3232A122,37.554670,126.836720,1
스타벅스 마곡웰튼,3232A123,37.567143,126.825315,1
스타벅스 김포공항DT,3232A124,37.566279,126.806066,1
스타벅스 강서NC,3232A125,37.560088,126.840534,1
스타벅스 마곡나루공원,3232A126,37.567007,126.822246,1
스타벅스 송정역,3232A127,37.561056,126.811510,1
스타벅스 강서구청사거리,3232A128,37.554927,126.852313,1
스타벅스 낙성대역,3232A129,37.477760,126.961143,1
스타벅스 관악서울대입구R,3232A130,37.479325,126.952702,1
스타벅스 신림DT,3232A131,37.480935,126.908407,1
스타벅스 서울대역,3232A132,37.481663,126.952017,1
스타벅스 낙성대DT,3232A133,37.476243,126.965117,1
스타벅스 사당,3232A134,37.476137,126.980928,1
스타벅스 보라매대교,3232A135,37.491449,126.925432,1
스타벅스 신림,3232A136,37.486095,126.929160,1
스타벅스 신림타임스트림,3232A137,37.484071,126.930258,1
스타벅스 서울대입구역,3232A138,37.481207,126.951401,1
스타벅스 서울대입구역8번출구,3232A139,37.481206,126.953694,1
스타벅스 봉천역,3232A140,37.482038,126.942288,1
스타벅스 건국대,3232A141,37.541559,127.071124,1
스타벅스 어린이대공원역,3232A142,37.551946,127.076404,1
스타벅스 아차산역,3232A143,37.550621,127.090032,1
스타벅스 올림픽대교북단,3232A144,37.541129,127.095240,1
스타벅스 구의DT,3232A145,37.545298,127.087197,1
스타벅스 자양사거리,3232A146,37.537116,127.082582,1
스타벅스 군자역,3232A147,37.557026,127.079110,1
스타벅스 광나루,3232A148,37.547371,127.106049,1
스타벅스 건대스타시티,3232A149,37.538544,127.073009,1
스타벅스 건대입구,3232A150,37.540660,127.070723,1
스타벅스 구의역,3232A151,37.536980,127.084015,1
스타벅스 광장,3232A152,37.542613,127.099641,1
스타벅스 건국클래식,3232A153,37.538466,127.071271,1
스타벅스 건대후문,3232A154,37.546031,127.073819,1
스타벅스 중곡역,3232A155,37.565057,127.084452,1
스타벅스 자양이마트,3232A156,37.537817,127.072597,1
스타벅스 자양역,3232A157,37.532685,127.067879,1
스타벅스 화양삼거리,3232A158,37.547749,127.071269,1
스타벅스 군자사거리,3232A159,37.557695,127.079088,1
스타벅스 금천구청역,3232A160,37.455887,126.895683,1
스타벅스 가산에스케이,3232A161,37.480824,126.881001,1
스타벅스 독산사거리,3232A162,37.471583,126.898606,1
스타벅스 금천시흥,3232A163,37.448759,126.903239,1
스타벅스 가산디지털단지역,3232A164,37.481354,126.883589,1
스타벅스 금천독산,3232A165,37.469571,126.895658,1
스타벅스 가산디지털,3232A166,37.479970,126.882507,1
스타벅스 마리오아울렛,3232A167,37.478607,126.884848,1
스타벅스 가산브이타워,3232A168,37.477004,126.883551,1
스타벅스 가산그레이트,3232A169,37.479551,126.887272,1
스타벅스 독산역,3232A170,37.467710,126.887674,1
스타벅스 가산퍼블릭,3232A171,37.475744,126.886848,1
스타벅스 가산현대아울렛,3232A172,37.477680,126.888841,1
스타벅스 가산케이에스,3232A173,37.480894,126.885156,1
스타벅스 가산어반워크,3232A174,37.480023,126.878251,1
스타벅스 월계역,3232A175,37.629500,127.057400,1
스타벅스 월계트레이더스,3232A176,37.628006,127.061354,1
스타벅스 상계초교사거리,3232A177,37.656776,127.066442,1
스타벅스 공릉DT,3232A178,37.620688,127.074312,1
스타벅스 노원마들역,3232A179,37.661026,127.058078,1
스타벅스 공릉역,3232A180,37.626337,127.072252,1
스타벅스 은행사거리,3232A181,37.650487,127.075986,1
스타벅스 노원KT,3232A182,37.654562,127.063617,1
스타벅스 광운대,3232A183,37.623148,127.060701,1
스타벅스 중계역,3232A184,37.648170,127.062244,1
스타벅스 노원역,3232A185,37.654751,127.060034,1
스타벅스 월계이마트,3232A186,37.627104,127.062079,1
스타벅스 태릉입구역DT,3232A187,37.619420,127.079320,1
스타벅스 노원상계,3232A188,37.651535,127.061026,1
스타벅스 노원구청,3232A189,37.653990,127.057755,1
스타벅스 창동이마트,3232A190,37.651658,127.046866,1
스타벅스 쌍문역,3232A191,37.648456,127.034783,1
스타벅스 도봉구청,3232A192,37.669503,127.046038,1
스타벅스 쌍문도봉로,3232A193,37.645352,127.033101,1
스타벅스 도봉로DT,3232A194,37.661181,127.041630,1
스타벅스 방학역,3232A195,37.665313,127.043313,1
스타벅스 창동역,3232A196,37.654502,127.049673,1
스타벅스 노량진동,3232A197,37.513068,126.946537,1
스타벅스 남성역,3232A198,37.484120,126.972574,1
스타벅스 상도역,3232A199,37.503194,126.948458,1
스타벅스 보라매공원R,3232A200,37.491910,126.923548,1
스타벅스 이수자이,3232A201,37.484414,126.980047,1
스타벅스 노량진역,3232A202,37.513390,126.940879,1
스타벅스 신대방삼거리역,3232A203,37.500349,126.931988,1
스타벅스 중앙대,3232A204,37.506933,126.958125,1
스타벅스 숭실대입구역,3232A205,37.496835,126.952712,1
스타벅스 숭실대,3232A206,37.495381,126.954889,1
스타벅스 사당역,3232A207,37.478492,126.981346,1
스타벅스 서강대프라자,3232A208,37.551073,126.943096,1
스타벅스 상암YTN,3232A209,37.579314,126.892210,1
스타벅스 마포용강동,3232A210,37.541186,126.942209,1
스타벅스 홍대입구역사거리R,3232A211,37.554636,126.920360,1
스타벅스 마포경찰서후문,3232A212,37.550800,126.953432,1
스타벅스 공덕,3232A213,37.545913,126.952956,1
스타벅스 합정폴리스R,3232A214,37.550900,126.913400,1
스타벅스 홍대공항철도역,3232A215,37.557491,126.925146,1
스타벅스 마포염리,3232A216,37.543876,126.947680,1
스타벅스 서강광흥창역,3232A217,37.549377,126.931661,1
스타벅스 합정,3232A218,37.549979,126.912540,1
스타벅스 서강대흥역,3232A219,37.548178,126.941576,1
스타벅스 서교동사거리,3232A220,37.553376,126.918564,1
스타벅스 상암사보이시티,3232A221,37.581462,126.888786,1
스타벅스 신촌오거리,3232A222,37.555137,126.934694,1
스타벅스 상암디지털큐브,3232A223,37.576135,126.888926,1
스타벅스 상수역,3232A224,37.547482,126.923216,1
스타벅스 공덕오거리,3232A225,37.542464,126.950577,1
스타벅스 서강대,3232A226,37.552458,126.937826,1
스타벅스 상암MBC,3232A227,37.580942,126.891585,1
스타벅스 홍대역,3232A228,37.557175,126.923654,1
스타벅스 동교,3232A229,37.556928,126.919819,1
스타벅스 애오개역,3232A230,37.552321,126.955695,1
스타벅스 상암DMC,3232A231,37.577700,126.890936,1
스타벅스 마포일진빌딩,3232A232,37.540435,126.946317,1
스타벅스 마포아크로,3232A233,37.541335,126.948867,1
스타벅스 홍대삼거리,3232A234,37.550248,126.923282,1
스타벅스 망원역,3232A235,37.555829,126.910637,1
스타벅스 마포이마트,3232A236,37.542421,126.953341,1
스타벅스 합정메세나몰,3232A237,37.550058,126.913559,1
스타벅스 아현역대로,3232A238,37.557097,126.954834,1
스타벅스 디지털미디어시티역,3232A239,37.576149,126.898948,1
스타벅스 홍대역8번출구,3232A240,37.556744,126.924167,1
스타벅스 합정푸르지오,3232A241,37.550943,126.912483,1
스타벅스 홍대동교,3232A242,37.558328,126.926247,1
스타벅스 망원한강공원,3232A243,37.553975,126.895928,1
스타벅스 마포구청역,3232A244,37.564957,126.902555,1
스타벅스 가재울뉴타운,3232A245,37.575072,126.916360,1
스타벅스 남가좌사거리,3232A246,37.577386,126.920815,1
스타벅스 신촌역,3232A247,37.556257,126.934653,1
스타벅스 연희동,3232A248,37.566702,126.930475,1
스타벅스 아현역,3232A249,37.558421,126.956349,1
스타벅스 홍제역,3232A250,37.588658,126.943864,1
스타벅스 연세백양로,3232A251,37.562874,126.937440,1
스타벅스 연희DT,3232A252,37.570214,126.933978,1
스타벅스 경기대,3232A253,37.563680,126.964605,1
스타벅스 신촌,3232A254,37.556486,126.937116,1
스타벅스 이대,3232A255,37.558483,126.945964,1
스타벅스 연세종합관,3232A256,37.561469,126.941120,1
스타벅스 이대ECC,3232A257,37.561631,126.947350,1
스타벅스 연대,3232A258,37.558706,126.936727,1
스타벅스 충정로역,3232A259,37.561370,126.963219,1
스타벅스 연대동문,3232A260,37.566485,126.946325,1
스타벅스 신촌명물거리,3232A261,37.557768,126.938155,1
스타벅스 충정타워,3232A262,37.559869,126.964110,1
스타벅스 이대역,3232A263,37.557058,126.946454,1
스타벅스 북가좌DT,3232A264,37.580758,126.911478,1
스타벅스 현대신촌,3232A265,37.556083,126.935845,1
스타벅스 방배로,3232A266,37.479343,126.999497,1
스타벅스 강남교보타워R,3232A267,37.503711,127.024335,1
스타벅스 방배다이치빌딩,3232A268,37.484329,126.995872,1
스타벅스 센트럴F1,3232A269,37.505148,127.004395,1
스타벅스 서초역이화빌딩,3232A270,37.487931,127.009126,1
스타벅스 서초구청,3232A271,37.484354,127.030091,1
스타벅스 서초우성사거리,3232A272,37.493545,127.029430,1
스타벅스 이수역사거리,3232A273,37.485850,126.983027,1
스타벅스 강남대로신사,3232A274,37.514890,127.019469,1
스타벅스 서울고속터미널,3232A275,37.504570,127.006160,1
스타벅스 방배,3232A276,37.491914,126.990497,1
스타벅스 방배카페거리,3232A277,37.493477,126.986530,1
스타벅스 서초법원,3232A278,37.492970,127.011875,1
스타벅스 청계산입구역,3232A279,37.447323,127.056250,1
스타벅스 사당로데오,3232A280,37.477275,126.982161,1
스타벅스 파미에파크R,3232A281,37.503052,127.004362,1
스타벅스 양재역,3232A282,37.482380,127.036853,1
스타벅스 논현역,3232A283,37.511438,127.020549,1
스타벅스 이수역,3232A284,37.486466,126.982740,1
스타벅스 내방역,3232A285,37.490004,126.992455,1
스타벅스 서초파라곤,3232A286,37.495630,127.027093,1
스타벅스 서울아트센터,3232A287,37.480866,127.012368,1
스타벅스 서초중앙로,3232A288,37.501691,127.011520,1
스타벅스 센트럴시티,3232A289,37.504707,127.004459,1
스타벅스 강남삼성타운,3232A290,37.495620,127.027714,1
스타벅스 방배역,3232A291,37.482008,126.997644,1
스타벅스 반포역,3232A292,37.508589,127.011959,1
스타벅스 남부터미널,3232A293,37.484673,127.016946,1
스타벅스 뉴코아강남,3232A294,37.510313,127.006958,1
스타벅스 강남서초초교,3232A295,37.500088,127.025491,1
스타벅스 교대,3232A296,37.492361,127.014221,1
스타벅스 하이브랜드,3232A297,37.462520,127.036668,1
스타벅스 신논현역,3232A298,37.505290,127.023636,1
스타벅스 영동2교,3232A299,37.482040,127.042575,1
스타벅스 남부터미널역5번출구,3232A300,37.484367,127.014219,1
스타벅스 서래마을입구,3232A301,37.499253,126.998480,1
스타벅스 몬테소리,3232A302,37.498270,127.026865,1
스타벅스 서초역,3232A303,37.490675,127.008612,1
스타벅스 교대법원,3232A304,37.496329,127.013336,1
스타벅스 강남GT타워,3232A305,37.497908,127.026163,1
스타벅스 서초동,3232A306,37.485941,127.021525,1
스타벅스 서울교대,3232A307,37.487397,127.015134,1
스타벅스 강남에비뉴,3232A308,37.502578,127.024106,1
스타벅스 반포자이,3232A309,37.507170,127.009919,1
스타벅스 서초태우빌딩,3232A310,37.488705,127.031581,1
스타벅스 교대역3번출구,3232A311,37.494346,127.014901,1
스타벅스 반포원베일리,3232A312,37.504657,126.999033,1
스타벅스 강남역우송빌딩,3232A313,37.498131,127.025279,1
스타벅스 서이초교사거리,3232A314,37.491815,127.025225,1
스타벅스 서울웨이브아트센터,3232A315,37.518807,127.007040,1
스타벅스 길음역,3232A316,37.602139,127.025271,1
스타벅스 미아이마트,3232A317,37.610678,127.029921,1
스타벅스 종암DT,3232A318,37.591953,127.036040,1
스타벅스 미아,3232A319,37.607581,127.029303,1
스타벅스 성신여대정문,3232A320,37.590910,127.018800,1
스타벅스 종암,3232A321,37.601095,127.033847,1
스타벅스 삼선교,3232A322,37.588696,127.007321,1
스타벅스 월곡역,3232A323,37.601718,127.040446,1
스타벅스 고대,3232A324,37.583972,127.029735,1
스타벅스 현대미아,3232A325,37.608378,127.028748,1
스타벅스 성신여대,3232A326,37.593135,127.018379,1
스타벅스 안암역,3232A327,37.586319,127.030556,1
스타벅스 한성대입구역,3232A328,37.589054,127.004839,1
스타벅스 고대안암병원,3232A329,37.586879,127.028203,1
스타벅스 장위뉴타운,3232A330,37.618072,127.051529,1
스타벅스 성신여대입구역,3232A331,37.593050,127.016700,1
스타벅스 송파나루역DT,3232A332,37.510987,127.110119,1
스타벅스 송파헬리오시티,3232A333,37.497783,127.102852,1
스타벅스 잠실시그마타워,3232A334,37.514567,127.102493,1
스타벅스 문정법원로R,3232A335,37.487356,127.119120,1
스타벅스 송파개롱역,3232A336,37.496956,127.136520,1
스타벅스 문정하비오,3232A337,37.482119,127.123541,1
스타벅스 문정역,3232A338,37.485297,127.122277,1
스타벅스 잠실대교남단R,3232A339,37.515511,127.099006,1
스타벅스 송파위례,3232A340,37.478416,127.143161,1
스타벅스 송파방이DT,3232A341,37.506564,127.120495,1
스타벅스 올림픽평화의문,3232A342,37.515643,127.116482,1
스타벅스 송파아이파크,3232A343,37.479793,127.122420,1
스타벅스 송파사거리,3232A344,37.502279,127.110390,1
스타벅스 석촌서호,3232A345,37.506393,127.096468,1
스타벅스 문정로데오,3232A346,37.491858,127.126231,1
스타벅스 올림픽훼미리,3232A347,37.491616,127.116266,1
스타벅스 올림픽공원남문,3232A348,37.513300,127.123113,1
스타벅스 방이역,3232A349,37.508490,127.126777,1
스타벅스 석촌호수,3232A350,37.509579,127.105326,1
스타벅스 잠실푸르지오월드,3232A351,37.517649,127.103426,1
스타벅스 잠실새내역,3232A352,37.511679,127.081062,1
스타벅스 잠실역,3232A353,37.515272,127.099231,1
스타벅스 갤러리아팰리스,3232A354,37.511084,127.093806,1
스타벅스 아시아선수촌,3232A355,37.510590,127.079047,1
스타벅스 올림픽아파트,3232A356,37.515315,127.133237,1
스타벅스 가락본동,3232A357,37.494812,127.118835,1
스타벅스 석촌역,3232A358,37.504263,127.106108,1
스타벅스 가락시장역,3232A359,37.494429,127.121743,1
스타벅스 가든파이브,3232A360,37.477975,127.121185,1
스타벅스 문정역2번출구,3232A361,37.486293,127.123203,1
스타벅스 잠실본동,3232A362,37.508645,127.079491,1
스타벅스 송파NC,3232A363,37.478044,127.125801,1
스타벅스 송파거여역,3232A364,37.493600,127.143645,1
스타벅스 몽촌토성역,3232A365,37.516913,127.113127,1
스타벅스 송파KT,3232A366,37.513942,127.106992,1
스타벅스 문정법조타운 한양타워,3232A367,37.485797,127.117814,1
스타벅스 송파마천사거리DT,3232A368,37.499829,127.147672,1
스타벅스 목동파리공원,3232A369,37.535336,126.878852,1
스타벅스 등촌역,3232A370,37.548884,126.868070,1
스타벅스 목동행복한,3232A371,37.529356,126.875892,1
스타벅스 신정DT,3232A372,37.521993,126.858865,1
스타벅스 목동역,3232A373,37.526684,126.863986,1
스타벅스 목동오목로,3232A374,37.525923,126.868438,1
스타벅스 목동8단지,3232A375,37.520518,126.868841,1
스타벅스 오목교역,3232A376,37.523856,126.876450,1
스타벅스 신월IC DT,3232A377,37.529502,126.832202,1
스타벅스 목동7단지,3232A378,37.528012,126.870530,1
스타벅스 목동5단지,3232A379,37.536386,126.882118,1
스타벅스 목동,3232A380,37.536384,126.878560,1
스타벅스 현대목동,3232A381,37.526848,126.875023,1
스타벅스 목동SBS,3232A382,37.528962,126.873630,1
스타벅스 목동트라팰리스,3232A383,37.525500,126.870200,1
스타벅스 목동10단지,3232A384,37.515426,126.859603,1
스타벅스 신월동DT,3232A385,37.538292,126.827101,1
스타벅스 타임스퀘어R,3232A386,37.517550,126.905160,1
스타벅스 샛강역,3232A387,37.518355,126.931272,1
스타벅스 영등포역,3232A388,37.517000,126.909067,1
스타벅스 당산대로,3232A389,37.533121,126.903804,1
스타벅스 여의도IFC몰(L1)R,3232A390,37.525386,126.926065,1
스타벅스 여의도KBS R,3232A391,37.526596,126.918456,1
스타벅스 여의도화재보험,3232A392,37.521345,126.926004,1
스타벅스 국회대로,3232A393,37.530260,126.919549,1
스타벅스 영등포KT,3232A394,37.526419,126.905314,1
스타벅스 여의도공원R,3232A395,37.529130,126.925357,1
스타벅스 국회의사당역,3232A396,37.528054,126.917120,1
스타벅스 여의도역R,3232A397,37.523328,126.923439,1
스타벅스 선유동이레빌딩,3232A398,37.534278,126.896976,1
스타벅스 동여의도,3232A399,37.520630,126.931686,1
스타벅스 여의도ABL타워,3232A400,37.518749,126.927790,1
스타벅스 영등포신길,3232A401,37.504566,126.910073,1
스타벅스 문래역,3232A402,37.517446,126.895258,1
스타벅스 당산,3232A403,37.534994,126.900005,1
스타벅스 여의도한양증권,3232A404,37.522450,126.929059,1
스타벅스 여의도일신,3232A405,37.527750,126.920276,1
스타벅스 하이테크시티,3232A406,37.514456,126.899879,1
스타벅스 여의도,3232A407,37.524035,126.924518,1
스타벅스 롯데캐슬여의도,3232A408,37.520252,126.926368,1
스타벅스 문래동,3232A409,37.519602,126.889652,1
스타벅스 여의도호성,3232A410,37.520471,126.929206,1
스타벅스 타임스퀘어B2,3232A411,37.516810,126.903363,1
스타벅스 영등포본동,3232A412,37.518713,126.909559,1
스타벅스 타임스퀘어2F,3232A413,37.516923,126.903312,1
스타벅스 여의도의사당,3232A414,37.530023,126.921090,1
스타벅스 여의도IFC(1F),3232A415,37.525273,126.924668,1
스타벅스 여의도교직원공제회,3232A416,37.521915,126.925588,1
스타벅스 선유도역 1번출구,3232A417,37.538333,126.893612,1
스타벅스 영등포시장역,3232A418,37.523493,126.904978,1
스타벅스 영등포구청역,3232A419,37.527890,126.896080,1
스타벅스 서울양평역,3232A420,37.523128,126.885809,1
스타벅스 영등포시장교차로,3232A421,37.520424,126.904446,1
스타벅스 더현대서울(B2)R,3232A422,37.525883,126.928658,1
스타벅스 여의도브라이튼,3232A423,37.524101,126.929817,1
스타벅스 여의도TP타워,3232A424,37.521625,126.923020,1
스타벅스 당산역사거리,3232A425,37.534097,126.901214,1
스타벅스 신풍역,3232A426,37.500347,126.908438,1
스타벅스 불광역,3232A427,37.609382,126.930397,1
스타벅스 구파발사거리,3232A428,37.639617,126.918810,1
스타벅스 연신내역사거리,3232A429,37.618774,126.921799,1
스타벅스 연신내,3232A430,37.620321,126.919893,1
스타벅스 구파발역,3232A431,37.634460,126.918881,1
스타벅스 은평구청입구,3232A432,37.601042,126.926789,1
스타벅스 은평이마트,3232A433,37.600379,126.920274,1
스타벅스 구산역,3232A434,37.611745,126.917678,1
스타벅스 불광역8번출구,3232A435,37.611990,126.928900,1
스타벅스 수색,3232A436,37.580064,126.899562,1
스타벅스 새절역,3232A437,37.589427,126.912864,1
스타벅스 더북한산,3232A438,37.655458,126.947556,1
스타벅스 녹번역,3232A439,37.603308,126.935286,1
스타벅스 진관DT,3232A440,37.650179,126.936197,1
스타벅스 연합뉴스,3232A441,37.574627,126.980475,1
스타벅스 혜화역,3232A442,37.582478,127.002185,1
스타벅스 경희궁로,3232A443,37.571759,126.972343,1
스타벅스 강북삼성병원,3232A444,37.568546,126.967560,1
스타벅스 종로평창동,3232A445,37.606148,126.967364,1
스타벅스 광화문우체국,3232A446,37.569854,126.978083,1
스타벅스 종로R,3232A447,37.570800,126.983400,1
스타벅스 독립문역,3232A448,37.571432,126.961269,1
스타벅스 정부서울청사R,3232A449,37.574621,126.973678,1
스타벅스 종로구청,3232A450,37.572499,126.980951,1
스타벅스 북촌로,3232A451,37.579419,126.986486,1
스타벅스 종로수송,3232A452,37.571652,126.980623,1
스타벅스 새문안로,3232A453,37.569824,126.975222,1
스타벅스 안국,3232A454,37.577394,126.985764,1
스타벅스 삼청동,3232A455,37.585412,126.981913,1
스타벅스 광화문D타워,3232A456,37.570491,126.979070,1
스타벅스 적선,3232A457,37.575204,126.973936,1
스타벅스 인사,3232A458,37.572209,126.986798,1
스타벅스 광화문,3232A459,37.571229,126.976287,1
스타벅스 성대입구,3232A460,37.582892,126.998392,1
스타벅스 스페이스본,3232A461,37.574886,126.969220,1
스타벅스 주얼리시티,3232A462,37.571483,126.998667,1
스타벅스 종각,3232A463,37.570017,126.984504,1
스타벅스 동숭로아트,3232A464,37.582969,127.003876,1
스타벅스 종로관철,3232A465,37.569139,126.985933,1
스타벅스 경복궁역,3232A466,37.577151,126.972745,1
스타벅스 이마빌딩,3232A467,37.573864,126.978972,1
스타벅스 마로니에공원,3232A468,37.581543,127.002341,1
스타벅스 종로3가,3232A469,37.570565,126.990217,1
스타벅스 대학로,3232A470,37.576492,127.001471,1
스타벅스 경복궁사거리,3232A471,37.575616,126.980237,1
스타벅스 종로관수,3232A472,37.569711,126.988635,1
스타벅스 광화문교보문고,3232A473,37.571017,126.977937,1
스타벅스 정동,3232A474,37.568578,126.970067,1
스타벅스 종로플레이스,3232A475,37.573138,126.998355,1
스타벅스 강북삼성병원1층,3232A476,37.568546,126.967560,1
스타벅스 동숭길입구,3232A477,37.584236,127.002014,1
스타벅스 서울대치과병원,3232A478,37.577474,126.999891,1
스타벅스 서대문역,3232A479,37.566700,126.966290,1
스타벅스 숭례문북창,3232A480,37.561725,126.976838,1
스타벅스 을지로4가역,3232A481,37.566344,126.997533,1
스타벅스 동대문두타,3232A482,37.568925,127.008784,1
스타벅스 대한상공회의소R,3232A483,37.560938,126.973702,1
스타벅스 국립중앙의료원,3232A484,37.566516,127.006238,1
스타벅스 동국대,3232A485,37.561542,126.998437,1
스타벅스 신세계본점5F,3232A486,37.560951,126.981134,1
스타벅스 동대문공원,3232A487,37.565133,127.007191,1
스타벅스 을지로국제빌딩,3232A488,37.566952,126.982219,1
스타벅스 동대입구역,3232A489,37.559593,127.006142,1
스타벅스 신당역사거리,3232A490,37.565807,127.016430,1
스타벅스 연세세브란스,3232A491,37.557207,126.973540,1
스타벅스 회현역,3232A492,37.559472,126.980726,1
스타벅스 을지로경기빌딩,3232A493,37.567075,126.983146,1
스타벅스 을지로2가,3232A494,37.566347,126.988066,1
스타벅스 신세계본점6F,3232A495,37.560381,126.980758,1
스타벅스 서울중앙우체국,3232A496,37.561678,126.982117,1
스타벅스 한국프레스센터,3232A497,37.567248,126.978049,1
스타벅스 명동중앙로,3232A498,37.563749,126.985772,1
스타벅스 약수역,3232A499,37.555437,127.010725,1
스타벅스 중구저동,3232A500,37.564369,126.990338,1
스타벅스 명동길,3232A501,37.562070,126.985867,1
스타벅스 서소문로,3232A502,37.563006,126.974546,1
스타벅스 신당역,3232A503,37.565403,127.014352,1
스타벅스 명동메트로,3232A504,37.565118,126.983681,1
스타벅스 숭례문,3232A505,37.558745,126.973095,1
스타벅스 순화동더샵,3232A506,37.560061,126.971838,1
스타벅스 환구단,3232A507,37.564599,126.979230,1
스타벅스 무교동,3232A508,37.567928,126.979207,1
스타벅스 문화일보,3232A509,37.567123,126.968664,1
스타벅스 태평로,3232A510,37.562483,126.976793,1
스타벅스 퍼시픽타워,3232A511,37.561322,126.973026,1
스타벅스 남산단암,3232A512,37.558536,126.975459,1
스타벅스 황학캐슬,3232A513,37.571240,127.022905,1
스타벅스 을지로삼화타워,3232A514,37.566902,126.984707,1
스타벅스 소공로,3232A515,37.563727,126.980768,1
스타벅스 을지로한국빌딩,3232A516,37.565722,126.983290,1
스타벅스 시청,3232A517,37.566290,126.979808,1
스타벅스 명동역,3232A518,37.560862,126.983105,1
스타벅스 명동입구,3232A519,37.563319,126.982242,1
스타벅스 장충라운지R,3232A520,37.561037,127.007335,1
스타벅스 충무로,3232A521,37.561496,126.992823,1
스타벅스 이마트타워,3232A522,37.560743,126.972528,1
스타벅스 동호로,3232A523,37.553478,127.011305,1
스타벅스 무교로,3232A524,37.567221,126.979077,1
스타벅스 청계크리스탈스퀘어,3232A525,37.567900,126.989330,1
스타벅스 숭례문SG타워,3232A526,37.558129,126.974264,1
스타벅스 세종대로,3232A527,37.568678,126.976493,1
스타벅스 동대문디자인플라자,3232A528,37.567430,127.009758,1
스타벅스 별다방,3232A529,37.560201,126.982933,1
스타벅스 포포인츠명동,3232A530,37.565721,126.989343,1
스타벅스 명동남산,3232A531,37.560809,126.986397,1
스타벅스 명일역,3232A532,37.552555,127.143886,1
스타벅스 강동구청DT,3232A533,37.529388,127.123848,1
스타벅스 강동암사DT,3232A534,37.555116,127.129971,1
스타벅스 굽은다리역,3232A535,37.545312,127.143018,1
스타벅스 강동역,3232A536,37.536047,127.133086,1
스타벅스 둔촌동,3232A537,37.522642,127.133987,1
스타벅스 천호로데오,3232A538,37.537807,127.127309,1
스타벅스 천호이마트,3232A539,37.538984,127.125171,1
스타벅스 길동역,3232A540,37.538702,127.140140,1
스타벅스 상일동,3232A541,37.550948,127.174095,1
스타벅스 명일이마트,3232A542,37.554179,127.156134,1
스타벅스 상일동역,3232A543,37.557567,127.170764,1
스타벅스 천호사거리,3232A544,37.539702,127.123542,1
스타벅스 강일역,3232A545,37.557475,127.173511,1
스타벅스 올림픽공원북2문,3232A546,37.524183,127.128678,1
스타벅스 강동강일,3232A547,37.572195,127.174940,1
스타벅스 천호대로길동,3232A548,37.534651,127.137210,1
스타벅스 천호역,3232A549,37.537952,127.124579,1
스타벅스 구로디지털타워,3232A550,37.483472,126.896857,1
스타벅스 오류동역,3232A551,37.496216,126.844861,1
스타벅스 구로디지털로,3232A552,37.485699,126.895992,1
스타벅스 구로에이스,3232A553,37.484234,126.894561,1
스타벅스 구로하이엔드,3232A554,37.481618,126.893136,1
스타벅스 현대디큐브2F,3232A555,37.509453,126.889684,1
스타벅스 구로호텔,3232A556,37.483129,126.898859,1
스타벅스 현대디큐브B2,3232A557,37.509248,126.889981,1
스타벅스 구로고척,3232A558,37.497060,126.863150,1
스타벅스 구로NC,3232A559,37.501219,126.882798,1
스타벅스 구로오류DT,3232A560,37.488129,126.834492,1
스타벅스 구로구청,3232A561,37.493951,126.886761,1
스타벅스 고척아이파크,3232A562,37.499306,126.858221,1
스타벅스 신도림힐스테이트,3232A563,37.506860,126.884638,1
스타벅스 답십리역,3232A564,37.568466,127.051106,1
스타벅스 경희대삼거리,3232A565,37.591531,127.052017,1
스타벅스 외대정문,3232A566,37.595346,127.059030,1
스타벅스 신설동역,3232A567,37.576723,127.025545,1
스타벅스 회기역사거리,3232A568,37.590784,127.056098,1
스타벅스 장한평역,3232A569,37.562337,127.065511,1
스타벅스 경희대,3232A570,37.592881,127.052809,1
스타벅스 청량리역롯데캐슬스카이,3232A571,37.579249,127.045331,1
스타벅스 경동1960,3232A572,37.579614,127.038685,1
스타벅스 사이버한국외대,3232A573,37.596051,127.060761,1
스타벅스 청량리역사,3232A574,37.580565,127.048565,1
스타벅스 답십리초교사거리,3232A575,37.568254,127.057241,1
스타벅스 장안사거리,3232A576,37.572721,127.070093,1
스타벅스 서울숲역,3232A577,37.541869,127.044899,1
스타벅스 금호역,3232A578,37.547994,127.015334,1
스타벅스 뚝섬역,3232A579,37.546432,127.049042,1
스타벅스 황학사거리,3232A580,37.567598,127.023713,1
스타벅스 성수역,3232A581,37.543193,127.056943,1
스타벅스 상왕십리역,3232A582,37.565110,127.028020,1
스타벅스 왕십리역,3232A583,37.562754,127.033907,1
스타벅스 한양대,3232A584,37.557270,127.042165,1
스타벅스 엔터식스,3232A585,37.561758,127.038333,1
스타벅스 신금호역,3232A586,37.554967,127.020145,1
스타벅스 왕십리역9번출구,3232A587,37.560543,127.035267,1
스타벅스 성수,3232A588,37.544462,127.055413,1
스타벅스 옥수,3232A589,37.543030,127.013366,1
스타벅스 성수낙낙,3232A590,37.547326,127.066367,1
스타벅스 효창공원앞역,3232A591,37.539305,126.963060,1
스타벅스 서울역서부,3232A592,37.555165,126.968446,1
스타벅스 이태원역,3232A593,37.534273,126.994789,1
스타벅스 한강진역R,3232A594,37.537131,127.000980,1
스타벅스 용산역써밋R,3232A595,37.527586,126.965401,1
스타벅스 이촌,3232A596,37.518605,126.977271,1
스타벅스 신용산역,3232A597,37.528702,126.966757,1
스타벅스 용산파크타워,3232A598,37.523818,126.970389,1
스타벅스 남영동,3232A599,37.542831,126.972242,1
스타벅스 한남동R,3232A600,37.534850,127.010919,1
스타벅스 서울타워,3232A601,37.551102,126.988317,1
스타벅스 서울역동자동,3232A602,37.551752,126.972694,1
스타벅스 순천향입구,3232A603,37.533394,127.005630,1
스타벅스 숙대,3232A604,37.544605,126.967225,1
스타벅스 동빙고,3232A605,37.529005,126.991763,1
스타벅스 숙대입구역,3232A606,37.544226,126.971957,1
스타벅스 용산아이파크몰6F,3232A607,37.528907,126.964635,1
스타벅스 동부이촌동,3232A608,37.521110,126.969050,1
스타벅스 숙명여대정문,3232A609,37.544748,126.964842,1
스타벅스 용산해링턴스퀘어,3232A610,37.526538,126.967362,1
스타벅스 경리단길,3232A611,37.538540,126.987370,1
스타벅스 서울역사,3232A612,37.554157,126.971794,1
스타벅스 용산리첸시아,3232A613,37.538571,126.967409,1
스타벅스 용산전자랜드,3232A614,37.532861,126.961001,1
스타벅스 상봉,3232A615,37.597842,127.092509,1
스타벅스 중랑역,3232A616,37.593033,127.074736,1
스타벅스 중랑구청,3232A617,37.605389,127.095756,1
스타벅스 사가정역,3232A618,37.579594,127.087966,1
스타벅스 상봉역,3232A619,37.596890,127.086470,1
스타벅스 묵동,3232A620,37.615368,127.076633,1
스타벅스 양원역,3232A621,37.606654,127.106360,1
스타벅스 중화역,3232A622,37.601709,127.078411,1
스타벅스 김해진영DT,3232A623,35.306004,128.731753,1
스타벅스 신세계김해,3232A624,35.228483,128.873046,1
스타벅스 김해이마트,3232A625,35.229997,128.872136,1
스타벅스 김해대로DT,3232A626,35.227992,128.896545,1
스타벅스 김해외동DT,3232A627,35.229626,128.862948,1
스타벅스 김해율하,3232A628,35.176597,128.812782,1
스타벅스 김해삼계,3232A629,35.261527,128.871614,1
스타벅스 김해내동,3232A630,35.237152,128.867521,1
스타벅스 서김해IC DT,3232A631,35.203877,128.837971,1
스타벅스 김해주촌DT,3232A632,35.235283,128.843496,1
스타벅스 김해가야로DT,3232A633,35.240903,128.884341,1
스타벅스 장유대청,3232A634,35.190482,128.801459,1
스타벅스 장유율하,3232A635,35.171580,128.822641,1
스타벅스 진영신도시,3232A636,35.307409,128.735295,1
스타벅스 김해율하신도시,3232A637,35.170945,128.813901,1
스타벅스 김해금관대로DT,3232A638,35.239872,128.860901,1
스타벅스 밀양DT,3232A639,35.485327,128.751249,1
스타벅스 경남사천DT,3232A640,35.080980,128.083555,1
스타벅스 사천벌리,3232A641,34.941137,128.086381,1
스타벅스 진주평거,3232A642,35.172324,128.060063,1
스타벅스 진주칠암DT,3232A643,35.174907,128.092966,1
스타벅스 진주중안,3232A644,35.192930,128.083038,1
스타벅스 진주신안,3232A645,35.184372,128.068210,1
스타벅스 진주경상대,3232A646,35.152412,128.105714,1
스타벅스 진주초전DT,3232A647,35.197388,128.116032,1
스타벅스 진주혁신도시,3232A648,35.180806,128.143995,1
스타벅스 경상대칠암캠퍼스,3232A649,35.178526,128.093623,1
스타벅스 마산회원DT,3232A650,35.220657,128.574434,1
스타벅스 창원상남로,3232A651,35.221253,128.681235,1
스타벅스 마산역DT,3232A652,35.236200,128.580545,1
스타벅스 마산해안대로DT,3232A653,35.204510,128.580956,1
스타벅스 진해자은DT,3232A654,35.143793,128.706881,1
스타벅스 창원역DT,3232A655,35.257066,128.607861,1
스타벅스 창원호계DT,3232A656,35.261507,128.523036,1
스타벅스 창원마창대교,3232A657,35.170623,128.597273,1
스타벅스 삼성창원병원,3232A658,35.242565,128.592460,1
스타벅스 마산터미널,3232A659,35.238134,128.583270,1
스타벅스 진해용원,3232A660,35.101122,128.809896,1
스타벅스 창원리베라,3232A661,35.223387,128.680163,1
스타벅스 창원상남중앙,3232A662,35.222756,128.684363,1
스타벅스 창원상남동R,3232A663,35.224468,128.683955,1
스타벅스 신세계마산,3232A664,35.219363,128.586754,1
스타벅스 창원시티세븐,3232A665,35.240106,128.653535,1
스타벅스 경남대,3232A666,35.178461,128.558600,1
스타벅스 창원용지호수,3232A667,35.229881,128.681890,1
스타벅스 마산월남동DT,3232A668,35.185822,128.561226,1
스타벅스 마산봉암로DT,3232A669,35.218820,128.599318,1
스타벅스 진해경화역DT,3232A670,35.159251,128.691821,1
스타벅스 창원반림,3232A671,35.236043,128.671745,1
스타벅스 창원유니시티,3232A672,35.256510,128.625291,1
스타벅스 창원NC파크R,3232A673,35.223429,128.582693,1
스타벅스 창원중앙역,3232A674,35.238753,128.701406,1
스타벅스 진해부산신항,3232A675,35.088418,128.814739,1
스타벅스 창원경상대병원,3232A676,35.198899,128.706984,1
스타벅스 창원대로DT,3232A677,35.209562,128.683682,1
스타벅스 창원사파,3232A678,35.223059,128.700799,1
스타벅스 진해장천,3232A679,35.130839,128.703571,1
스타벅스 창원파티마병원,3232A680,35.236797,128.645831,1
스타벅스 창원내서,3232A681,35.249031,128.510681,1
스타벅스 마산진동DT,3232A682,35.114308,128.482418,1
스타벅스 통영이마트,3232A683,34.886598,128.417895,1
스타벅스 통영죽림,3232A684,34.882242,128.422815,1
스타벅스 통영북신DT,3232A685,34.854754,128.428162,1
스타벅스 거제대로DT,3232A686,34.894667,128.641559,1
스타벅스 거제고현,3232A687,34.890771,128.622185,1
스타벅스 소노캄거제,3232A688,34.843843,128.702360,1
스타벅스 거제옥포DT,3232A689,34.888991,128.691574,1
스타벅스 거제장평,3232A690,34.892974,128.608744,1
스타벅스 남양산IC DT,3232A691,35.319987,129.030485,1
스타벅스 양산증산역,3232A692,35.308980,129.009457,1
스타벅스 양산가촌,3232A693,35.317147,129.001499,1
스타벅스 양산덕계DT,3232A694,35.376107,129.155523,1
스타벅스 양산터미널,3232A695,35.335340,129.026850,1
스타벅스 양산범어,3232A696,35.328744,129.014307,1
스타벅스 양산이마트,3232A697,35.337066,129.026902,1
스타벅스 양산물금DT,3232A698,35.307535,128.986401,1
스타벅스 양산신기DT,3232A699,35.355050,129.038318,1
스타벅스 영남대아트센터,3232A700,35.831864,128.753292,1
스타벅스 영남대중앙도서관,3232A701,35.833166,128.758014,1
스타벅스 영남대,3232A702,35.836968,128.753065,1
스타벅스 대구가톨릭대,3232A703,35.907786,128.812463,1
스타벅스 경산이마트,3232A704,35.834624,128.720181,1
스타벅스 대구대학교,3232A705,35.897370,128.849758,1
스타벅스 경산임당역DT,3232A706,35.833750,128.745658,1
스타벅스 경산중산,3232A707,35.830297,128.719742,1
스타벅스 경산하양DT,3232A708,35.904849,128.823882,1
스타벅스 경산무학,3232A709,35.917282,128.813156,1
스타벅스 경주보문,3232A710,35.836607,129.284983,1
스타벅스 경주터미널DT,3232A711,35.838226,129.203324,1
스타벅스 경주대릉원,3232A712,35.833993,129.214981,1
스타벅스 경주보문호수DT,3232A713,35.853239,129.268688,1
스타벅스 경주중앙,3232A714,35.842119,129.212469,1
스타벅스 경주보문로DT,3232A715,35.838831,129.285953,1
스타벅스 경주용강DT,3232A716,35.867738,129.224455,1
스타벅스 경주충효DT,3232A717,35.844539,129.174758,1
스타벅스 구미상모DT,3232A718,36.082317,128.356385,1
스타벅스 구미도량DT,3232A719,36.138474,128.316815,1
스타벅스 구미옥계,3232A720,36.138285,128.419563,1
스타벅스 구미시청DT,3232A721,36.117631,128.341607,1
스타벅스 구미금오산DT,3232A722,36.122450,128.323746,1
스타벅스 구미인동,3232A723,36.107824,128.418499,1
스타벅스 구미공단,3232A724,36.101773,128.385854,1
스타벅스 구미인의DT,3232A725,36.095564,128.431144,1
스타벅스 구미광평DT,3232A726,36.103740,128.363590,1
스타벅스 구미문성DT,3232A727,36.160830,128.343046,1
스타벅스 구미확장단지,3232A728,36.155954,128.430024,1
스타벅스 상주무양DT,3232A729,36.426185,128.157202,1
스타벅스 영주가흥,3232A730,36.822911,128.610235,1
스타벅스 경북도청대로,3232A731,36.574734,128.485496,1
스타벅스 포항쌍용DT,3232A732,36.015500,129.352589,1
스타벅스 포항오천,3232A733,35.964203,129.402716,1
스타벅스 포항대이,3232A734,36.025372,129.339307,1
스타벅스 포항이마트,3232A735,35.991221,129.398508,1
스타벅스 포항시청,3232A736,36.018247,129.342089,1
스타벅스 포항송도,3232A737,36.035647,129.379446,1
스타벅스 포항IC DT,3232A738,36.035500,129.333031,1
스타벅스 포항세명기독병원,3232A739,36.017825,129.362026,1
스타벅스 포항포스코DT,3232A740,35.996578,129.387641,1
스타벅스 김천구미역,3232A741,36.116366,128.181653,1
스타벅스 김천시청DT,3232A742,36.132608,128.117670,1
스타벅스 김천부곡DT,3232A743,36.128160,128.101300,1
스타벅스 안동이마트,3232A744,36.558505,128.699308,1
스타벅스 안동병원,3232A745,36.547024,128.700640,1
스타벅스 안동시청,3232A746,36.566357,128.731139,1
스타벅스 안동강변DT,3232A747,36.562221,128.739847,1
스타벅스 안동옥동,3232A748,36.562289,128.701536,1
스타벅스 영천완산DT,3232A749,35.967021,128.948863,1
스타벅스 포항죽도DT,3232A750,36.018521,129.347918,1
스타벅스 포항장성DT,3232A751,36.074535,129.384214,1
스타벅스 포항양덕,3232A752,36.081551,129.398161,1
스타벅스 포항중앙,3232A753,36.038713,129.364099,1
스타벅스 포항영일대비치,3232A754,36.054992,129.376981,1
스타벅스 포항법원DT,3232A755,36.088505,129.385016,1
스타벅스 포항화진해수욕장,3232A756,36.251552,129.373348,1
스타벅스 포항중앙로DT,3232A757,36.030707,129.366266,1
스타벅스 포항초곡DT,3232A758,36.094074,129.343183,1
스타벅스 포항두호DT,3232A759,36.061009,129.370226,1
스타벅스 광양LF,3232A760,34.963281,127.566205,1
스타벅스 광양마동DT,3232A761,34.940269,127.705715,1
스타벅스 목포터미널DT,3232A762,34.810168,126.416970,1
스타벅스 목포하당,3232A763,34.803958,126.419806,1
스타벅스 목포북항DT,3232A764,34.808634,126.373266,1
스타벅스 목포옥암,3232A765,34.807386,126.427267,1
스타벅스 목포평화광장,3232A766,34.796986,126.434950,1
스타벅스 목포이마트,3232A767,34.811595,126.425164,1
스타벅스 목포용해DT,3232A768,34.822177,126.394151,1
스타벅스 목포남악,3232A769,34.813142,126.461725,1
스타벅스 전남도청DT,3232A770,34.810272,126.460603,1
스타벅스 순천연향,3232A771,34.952252,127.518725,1
스타벅스 순천신대,3232A772,34.933472,127.550242,1
스타벅스 순천호수공원,3232A773,34.968146,127.523261,1
스타벅스 순천조례,3232A774,34.971989,127.520958,1
스타벅스 순천용당DT,3232A775,34.980161,127.485398,1
스타벅스 순천팔마DT,3232A776,34.935133,127.521687,1
스타벅스 순천이마트,3232A777,34.942564,127.508452,1
스타벅스 순천오천,3232A778,34.937138,127.495396,1
스타벅스 여수해양공원,3232A779,34.738437,127.744285,1
스타벅스 여수학동DT,3232A780,34.761510,127.660968,1
스타벅스 여수웅천,3232A781,34.746166,127.671046,1
스타벅스 여수둔덕DT,3232A782,34.768947,127.697469,1
스타벅스 여수여서,3232A783,34.752883,127.704195,1
스타벅스 여수여천,3232A784,34.759840,127.667034,1
스타벅스 더여수돌산DT,3232A785,34.727515,127.743784,1
스타벅스 여수신월DT,3232A786,34.724694,127.708871,1
스타벅스 여수마리나,3232A787,34.740371,127.677847,1
스타벅스 전남화순DT,3232A788,35.068527,126.988767,1
스타벅스 전남나주,3232A789,35.022514,126.788058,1
스타벅스 나주혁신DT,3232A790,35.021272,126.803045,1
스타벅스 전북남원DT,3232A791,35.403873,127.382880,1
스타벅스 익산모현,3232A792,35.948353,126.942392,1
스타벅스 익산영등DT,3232A793,35.959316,126.968766,1
스타벅스 익산영등,3232A794,35.958206,126.973766,1
스타벅스 익산어양,3232A795,35.964547,126.980228,1
스타벅스 익산동산DT,3232A796,35.928958,126.958374,1
스타벅스 전주송천DT,3232A797,35.867469,127.121929,1
스타벅스 전북대병원DT,3232A798,35.841630,127.137024,1
스타벅스 전주혁신도시,3232A799,35.838110,127.059364,1
스타벅스 전주덕진광장DT,3232A800,35.842878,127.124205,1
스타벅스 전북대,3232A801,35.842915,127.126823,1
스타벅스 전주에코DT,3232A802,35.882219,127.131900,1
스타벅스 전주에코시티,3232A803,35.873080,127.124589,1
스타벅스 전주인후DT,3232A804,35.825745,127.164448,1
스타벅스 전주호성DT,3232A805,35.863629,127.150794,1
스타벅스 전주만성DT,3232A806,35.836612,127.077815,1
스타벅스 전주IC DT,3232A807,35.868018,127.074447,1
스타벅스 전주아중DT,3232A808,35.828230,127.173161,1
스타벅스 전주시청,3232A809,35.825678,127.146605,1
스타벅스 전주평화DT,3232A810,35.788482,127.131075,1
스타벅스 전주백제대로DT,3232A811,35.814654,127.123414,1
스타벅스 전주효자DT,3232A812,35.805550,127.111153,1
스타벅스 전주서신,3232A813,35.834597,127.116132,1
스타벅스 전주홍산로,3232A814,35.814820,127.106247,1
스타벅스 전주한옥마을,3232A815,35.813452,127.148558,1
스타벅스 전북도청,3232A816,35.815628,127.109217,1
스타벅스 전주경원,3232A817,35.819775,127.144494,1
스타벅스 전주신시가지,3232A818,35.817258,127.101759,1
스타벅스 전주이마트,3232A819,35.832320,127.120230,1
스타벅스 전주효천DT,3232A820,35.800789,127.099306,1
스타벅스 전북정읍DT,3232A821,35.570511,126.851867,1
스타벅스 군산나운DT,3232A822,35.962771,126.695586,1
스타벅스 군산수송,3232A823,35.964213,126.717207,1
스타벅스 군산대,3232A824,35.945739,126.685965,1
스타벅스 군산이마트,3232A825,35.982677,126.734952,1
스타벅스 군산조촌DT,3232A826,35.966957,126.734627,1
스타벅스 군산수송DT,3232A827,35.958837,126.714630,1
스타벅스 공주신관,3232A828,36.474648,127.140030,1
스타벅스 공주DT,3232A829,36.468150,127.142740,1
스타벅스 논산중앙,3232A830,36.201250,127.089906,1
스타벅스 논산내동DT,3232A831,36.182125,127.099793,1
스타벅스 충남보령DT,3232A832,36.341089,126.589233,1
스타벅스 대천해수욕장,3232A833,36.314893,126.512116,1
스타벅스 충남부여DT,3232A834,36.284039,126.922180,1
스타벅스 서산예천DT,3232A835,36.771727,126.440171,1
스타벅스 서산호수,3232A836,36.776653,126.448646,1
스타벅스 서산석남DT,3232A837,36.764848,126.453134,1
스타벅스 천안신부,3232A838,36.819309,127.157715,1
스타벅스 천안청당,3232A839,36.785752,127.157555,1
스타벅스 천안안서,3232A840,36.830087,127.179779,1
스타벅스 천안IC DT,3232A841,36.820250,127.161500,1
스타벅스 천안원성DT,3232A842,36.804011,127.158508,1
스타벅스 신세계천안아산,3232A843,36.820288,127.156933,1
스타벅스 천안청당신도시,3232A844,36.781377,127.152852,1
스타벅스 천안대로DT,3232A845,36.795121,127.164257,1
스타벅스 천안서북이마트,3232A846,36.838876,127.122399,1
스타벅스 천안백석,3232A847,36.823793,127.121751,1
스타벅스 천안불당DT,3232A848,36.805399,127.106090,1
스타벅스 천안서부대로DT,3232A849,36.803680,127.126990,1
스타벅스 천안두정역DT,3232A850,36.832879,127.146316,1
스타벅스 천안시청,3232A851,36.816537,127.106565,1
스타벅스 천안쌍용역,3232A852,36.793123,127.122230,1
스타벅스 천안신불당,3232A853,36.812323,127.108287,1
스타벅스 천안성정DT,3232A854,36.825394,127.140351,1
스타벅스 천안불당,3232A855,36.810010,127.110961,1
스타벅스 천안두정,3232A856,36.833981,127.134838,1
스타벅스 천안이마트,3232A857,36.796031,127.127260,1
스타벅스 천안불당신도시,3232A858,36.820422,127.109658,1
스타벅스 천안업성레이크,3232A859,36.845535,127.138131,1
스타벅스 갤러리아센터시티,3232A860,36.800459,127.104689,1
스타벅스 천안번영로DT,3232A861,36.850925,127.124607,1
스타벅스 충남홍성DT,3232A862,36.609624,126.663575,1
스타벅스 충남도청,3232A863,36.657045,126.681439,1
스타벅스 계룡대로DT,3232A864,36.288465,127.244408,1
스타벅스 계룡대실DT,3232A865,36.268265,127.259600,1
스타벅스 당진시곡DT,3232A866,36.903029,126.683873,1
스타벅스 당진문예의전당,3232A867,36.891205,126.638986,1
스타벅스 당진시청,3232A868,36.888004,126.647166,1
스타벅스 아산방축DT,3232A869,36.783651,126.992699,1
스타벅스 아산배방,3232A870,36.774847,127.053906,1
스타벅스 아산탕정,3232A871,36.798663,127.058333,1
스타벅스 아산용화,3232A872,36.774397,127.008545,1
스타벅스 아산권곡,3232A873,36.788475,127.015954,1
스타벅스 아산탕정역,3232A874,36.787036,127.083771,1
스타벅스 아산모종,3232A875,36.776300,127.028425,1
스타벅스 천안아산역,3232A876,36.797450,127.105762,1
스타벅스 청주용암DT,3232A877,36.607509,127.503947,1
스타벅스 청주용담DT,3232A878,36.634172,127.505110,1
스타벅스 청주서문,3232A879,36.635373,127.486041,1
스타벅스 충북도청,3232A880,36.634270,127.491049,1
스타벅스 청주동남,3232A881,36.615490,127.516437,1
스타벅스 충주호암DT,3232A882,36.959057,127.923732,1
스타벅스 충주시청DT,3232A883,36.990066,127.928756,1
스타벅스 충주터미널,3232A884,36.980662,127.915191,1
스타벅스 충주연수,3232A885,36.982721,127.939889,1
스타벅스 충주교현DT,3232A886,36.966956,127.947386,1
스타벅스 충북혁신도시,3232A887,36.908714,127.542941,1
스타벅스 제천DT,3232A888,37.143691,128.213266,1
스타벅스 제천하소DT,3232A889,37.135855,128.199182,1
스타벅스 제천장락DT,3232A890,37.149567,128.226432,1
스타벅스 청주비하DT,3232A891,36.638464,127.422338,1
스타벅스 청주오송,3232A892,36.629803,127.333263,1
스타벅스 청주봉명DT,3232A893,36.646768,127.464561,1
스타벅스 청주강서,3232A894,36.625391,127.429613,1
스타벅스 청주지웰시티,3232A895,36.643657,127.427020,1
스타벅스 현대충청,3232A896,36.644407,127.426305,1
스타벅스 청주터미널,3232A897,36.626368,127.432425,1
스타벅스 오송바이오산업단지,3232A898,36.632619,127.327236,1
스타벅스 청주서현,3232A899,36.617812,127.429247,1
스타벅스 청주복대지웰,3232A900,36.641580,127.428199,1
스타벅스 오송파라곤,3232A901,36.619824,127.315230,1
스타벅스 청주이마트,3232A902,36.601146,127.474681,1
스타벅스 청주사직DT,3232A903,36.635906,127.481156,1
스타벅스 청주성화,3232A904,36.617611,127.446086,1
스타벅스 충북대,3232A905,36.633965,127.459715,1
스타벅스 충북대학교병원,3232A906,36.623939,127.461400,1
스타벅스 청주분평DT,3232A907,36.605664,127.494821,1
스타벅스 충북대캠퍼스,3232A908,36.627595,127.458507,1
스타벅스 오창호수공원,3232A909,36.712751,127.427283,1
스타벅스 청주율량DT,3232A910,36.666230,127.493207,1
스타벅스 오창과학단지,3232A911,36.716466,127.423272,1
스타벅스 청주주성,3232A912,36.671428,127.496933,1
스타벅스 오창2산단,3232A913,36.732073,127.449771,1
스타벅스 충북혁신덕산,3232A914,36.899775,127.529365,1
스타벅스 제주에듀시티,3232A915,33.291788,126.284407,1
스타벅스 제주성산DT,3232A916,33.449718,126.920701,1
스타벅스 제주중문DT,3232A917,33.254998,126.415906,1
스타벅스 제주송악산,3232A918,33.206799,126.290035,1
스타벅스 서귀포DT,3232A919,33.249278,126.506523,1
스타벅스 성산일출봉,3232A920,33.462865,126.935544,1
스타벅스 제주중문,3232A921,33.251128,126.412752,1
스타벅스 서귀포올레,3232A922,33.248302,126.563778,1
스타벅스 제주모슬포DT,3232A923,33.227287,126.257888,1
스타벅스 제주서귀포남원DT,3232A924,33.282883,126.718877,1
스타벅스 제주도남DT,3232A925,33.480342,126.523557,1
스타벅스 제주협재,3232A926,33.393839,126.240490,1
스타벅스 제주외도DT,3232A927,33.492333,126.427066,1
스타벅스 제주삼화DT,3232A928,33.511769,126.580473,1
스타벅스 제주시청,3232A929,33.500516,126.529711,1
스타벅스 제주함덕,3232A930,33.542511,126.668567,1
스타벅스 제주애월DT,3232A931,33.472780,126.348739,1
스타벅스 제주칠성,3232A932,33.513349,126.525244,1
스타벅스 제주노형,3232A933,33.487811,126.481861,1
스타벅스 제주용담DT,3232A934,33.512345,126.484564,1
스타벅스 신제주이마트,3232A935,33.484789,126.480346,1
스타벅스 제주세화DT,3232A936,33.522997,126.853093,1
스타벅스 제주노형로,3232A937,33.483441,126.476159,1
스타벅스 제주노형DT,3232A938,33.490850,126.474278,1
스타벅스 제주한라수목원DT,3232A939,33.469020,126.484586,1
스타벅스 제주서해안로DT,3232A940,33.516786,126.503555,1
스타벅스 제주일도DT,3232A941,33.507328,126.540898,1
스타벅스 제주공항DT,3232A942,33.500566,126.505484,1
스타벅스 제주한담해변DT,3232A943,33.458183,126.311230,1
스타벅스 더제주송당파크R,3232A944,33.435446,126.731393,1
스타벅스 제주평화로DT,3232A945,33.463293,126.450998,1
스타벅스 세종보람,3232A946,36.477332,127.286519,1
스타벅스 세종새롬,3232A947,36.486467,127.250852,1
스타벅스 세종어진R,3232A948,36.508235,127.261047,1
스타벅스 세종종촌,3232A949,36.504112,127.249381,1
스타벅스 세종첫마을,3232A950,36.480181,127.261633,1
스타벅스 세종이마트,3232A951,36.471012,127.251081,1
스타벅스 세종청사,3232A952,36.504511,127.270199,1
스타벅스 세종아름,3232A953,36.511635,127.242571,1
스타벅스 세종반곡,3232A954,36.497856,127.310047,1
스타벅스 세종한솔,3232A955,36.480081,127.253465,1
스타벅스 세종소담,3232A956,36.485755,127.300509,1
스타벅스 세종금강DT,3232A957,36.476054,127.277498,1
스타벅스 세종충남대학교병원,3232A958,36.518672,127.257174,1
스타벅스 가평설악IC DT,3232A959,37.679053,127.486382,1
스타벅스 남이섬,3232A960,37.806624,127.525270,1
스타벅스 소노캄고양,3232A961,37.662855,126.750513,1
스타벅스 일산애니골DT,3232A962,37.674875,126.793644,1
스타벅스 동국대일산병원,3232A963,37.676459,126.806486,1
스타벅스 일산풍동DT,3232A964,37.662091,126.800900,1
스타벅스 백석중앙로,3232A965,37.641100,126.790987,1
스타벅스 일산식사,3232A966,37.678174,126.812039,1
스타벅스 풍산이마트,3232A967,37.673769,126.786883,1
스타벅스 백석역DT,3232A968,37.643938,126.787386,1
스타벅스 백석,3232A969,37.643888,126.786153,1
스타벅스 라페스타광장,3232A970,37.659671,126.770161,1
스타벅스 일산백마,3232A971,37.657074,126.788070,1
스타벅스 웨스턴돔B,3232A972,37.654405,126.773302,1
스타벅스 마두역,3232A973,37.652965,126.776768,1
스타벅스 일산동구청,3232A974,37.656650,126.772598,1
스타벅스 고양대로DT,3232A975,37.677601,126.796162,1
스타벅스 일산하늘마을,3232A976,37.677568,126.782397,1
스타벅스 과천DT,3232A977,37.439291,126.993813,1
스타벅스 과천이마트,3232A978,37.426494,126.991640,1
스타벅스 과천,3232A979,37.428210,126.991015,1
스타벅스 과천지식정보타운,3232A980,37.413536,126.980303,1
스타벅스 광명하안대로,3232A981,37.461684,126.878370,1
스타벅스 철산역,3232A982,37.476427,126.867795,1
스타벅스 광명역,3232A983,37.416741,126.882009,1
스타벅스 광명소하DT,3232A984,37.434839,126.879269,1
스타벅스 광명소하,3232A985,37.448660,126.883959,1
스타벅스 광명사거리역,3232A986,37.479895,126.854325,1
스타벅스 철산로데오,3232A987,37.473966,126.869351,1
스타벅스 광명하안,3232A988,37.462605,126.880577,1
스타벅스 광명철산,3232A989,37.475304,126.866126,1
스타벅스 광명AK,3232A990,37.418832,126.883101,1
스타벅스 광명롯데몰,3232A991,37.423113,126.884699,1
스타벅스 경기광주쌍령DT,3232A992,37.398751,127.273318,1
스타벅스 경기광주신현DT,3232A993,37.360050,127.153125,1
스타벅스 경기광주송정DT,3232A994,37.416384,127.272570,1
스타벅스 경기광주,3232A995,37.409785,127.260213,1
스타벅스 경기광주초월역DT,3232A996,37.374402,127.298258,1
스타벅스 경기광주IC DT,3232A997,37.405681,127.231238,1
스타벅스 곤지암IC DT,3232A998,37.355682,127.325248,1
스타벅스 경기광주태전,3232A999,37.382534,127.233161,1
스타벅스 구리갈매역,3232A1000,37.633967,127.115944,1
스타벅스 구리돌다리,3232A1001,37.600585,127.141922,1
스타벅스 구리갈매DT,3232A1002,37.632370,127.122600,1
스타벅스 구리장자호수,3232A1003,37.587252,127.139874,1
스타벅스 구리인창DT,3232A1004,37.605680,127.139280,1
스타벅스 구리수택,3232A1005,37.588465,127.138136,1
스타벅스 구리토평DT,3232A1006,37.584632,127.147385,1
스타벅스 산본사거리,3232A1007,37.372658,126.935735,1
스타벅스 산본,3232A1008,37.360614,126.931744,1
스타벅스 산본역,3232A1009,37.358413,126.932192,1
스타벅스 산본동,3232A1010,37.365491,126.929426,1
스타벅스 금정AK,3232A1011,37.372279,126.944863,1
스타벅스 산본역서부사거리,3232A1012,37.357805,126.930669,1
스타벅스 다산지금,3232A1013,37.600542,127.174302,1
스타벅스 남양주연평DT,3232A1014,37.711527,127.185528,1
스타벅스 다산진건,3232A1015,37.624813,127.152582,1
스타벅스 도농역,3232A1016,37.611129,127.164199,1
스타벅스 남양주진접DT,3232A1017,37.722881,127.190297,1
스타벅스 리버사이드팔당DT,3232A1018,37.567114,127.228362,1
스타벅스 별내불암로,3232A1019,37.650317,127.112364,1
스타벅스 평내DT,3232A1020,37.647761,127.234694,1
스타벅스 별내,3232A1021,37.647968,127.123399,1
스타벅스 평내호평역,3232A1022,37.654036,127.242880,1
스타벅스 더북한강R,3232A1023,37.612479,127.342021,1
스타벅스 남양주화도DT,3232A1024,37.638996,127.303363,1
스타벅스 다산DT,3232A1025,37.614240,127.155370,1
스타벅스 남양주묵현DT,3232A1026,37.663100,127.302630,1
스타벅스 다산이마트,3232A1027,37.608680,127.158420,1
스타벅스 별내별가람역,3232A1028,37.668004,127.116959,1
스타벅스 남양주삼패,3232A1029,37.591876,127.199562,1
스타벅스 남양주행정타운,3232A1030,37.610756,127.168192,1
스타벅스 판교유스페이스,3232A1031,37.401270,127.107533,1
스타벅스 판교알파돔타워,3232A1032,37.394178,127.110645,1
스타벅스 판교아비뉴프랑R,3232A1033,37.397211,127.113392,1
스타벅스 야탑터미널,3232A1034,37.413494,127.128425,1
스타벅스 분당이매,3232A1035,37.395040,127.122363,1
스타벅스 분당율동공원,3232A1036,37.383850,127.149963,1
스타벅스 정자동,3232A1037,37.363290,127.114074,1
스타벅스 판교알파돔시티,3232A1038,37.394458,127.109362,1
스타벅스 서판교,3232A1039,37.391423,127.077668,1
스타벅스 판교브릿지타워,3232A1040,37.403324,127.099086,1
스타벅스 판교역로,3232A1041,37.397310,127.111294,1
스타벅스 서현,3232A1042,37.386010,127.125938,1
스타벅스 수내로,3232A1043,37.380487,127.116594,1
스타벅스 정자역,3232A1044,37.366824,127.106735,1
스타벅스 분당구청,3232A1045,37.384112,127.120165,1
스타벅스 뉴코아야탑,3232A1046,37.410413,127.127300,1
스타벅스 미금역,3232A1047,37.350318,127.106655,1
스타벅스 수내,3232A1048,37.379601,127.114752,1
스타벅스 정자상떼뷰,3232A1049,37.370097,127.105680,1
스타벅스 서현미래에셋,3232A1050,37.388006,127.123395,1
스타벅스 야탑글라스,3232A1051,37.410845,127.129806,1
스타벅스 정자,3232A1052,37.364875,127.106311,1
스타벅스 분당서울대병원4,3232A1053,37.351041,127.124178,1
스타벅스 분당서울대병원1,3232A1054,37.351041,127.124178,1
스타벅스 서현N타운,3232A1055,37.385917,127.122076,1
스타벅스 서현역,3232A1056,37.385897,127.124117,1
스타벅스 오리역,3232A1057,37.338617,127.109225,1
스타벅스 분당정자,3232A1058,37.371905,127.106885,1
스타벅스 수내역,3232A1059,37.377758,127.113665,1
스타벅스 정자아데나,3232A1060,37.360328,127.107744,1
스타벅스 분당이마트,3232A1061,37.359062,127.120065,1
스타벅스 판교H스퀘어,3232A1062,37.401220,127.108926,1
스타벅스 오리역삼거리,3232A1063,37.340016,127.108332,1
스타벅스 판교HIPEX,3232A1064,37.401209,127.110666,1
스타벅스 판교도서관,3232A1065,37.389551,127.090909,1
스타벅스 네이버1784,3232A1066,37.359112,127.105541,1
스타벅스 미금역2001아울렛,3232A1067,37.349044,127.107453,1
스타벅스 분당서현역AK R,3232A1068,37.384591,127.123183,1
스타벅스 판교역힐스테이트,3232A1069,37.392433,127.110895,1
스타벅스 수내역1번출구,3232A1070,37.378515,127.115790,1
스타벅스 HD현대R&D센터,3232A1071,37.376478,127.104301,1
스타벅스 분당궁내DT,3232A1072,37.370636,127.102071,1
스타벅스 야탑역사거리,3232A1073,37.409500,127.130100,1
스타벅스 남한산성입구역,3232A1074,37.449705,127.159463,1
스타벅스 단대오거리역,3232A1075,37.443328,127.154577,1
스타벅스 성남모란DT,3232A1076,37.429161,127.133443,1
스타벅스 수원금곡,3232A1077,37.274910,126.954432,1
스타벅스 수원세류DT,3232A1078,37.262923,127.011208,1
스타벅스 수원호매실,3232A1079,37.274375,126.941263,1
스타벅스 수원권선DT,3232A1080,37.246345,126.964025,1
스타벅스 수원권선,3232A1081,37.246668,127.030958,1
스타벅스 수원이마트,3232A1082,37.250080,127.021281,1
스타벅스 수원세류역DT,3232A1083,37.243791,127.017207,1
스타벅스 수원롯데백화점2F,3232A1084,37.264868,126.998456,1
스타벅스 수원고색동DT,3232A1085,37.239320,126.988719,1
스타벅스 수원탑동DT,3232A1086,37.267119,126.971364,1
스타벅스 수원연무DT,3232A1087,37.292180,127.028729,1
스타벅스 북수원IC DT,3232A1088,37.307776,126.998330,1
스타벅스 수원천천,3232A1089,37.297286,126.982671,1
스타벅스 수원성균관대,3232A1090,37.298935,126.971577,1
스타벅스 스타필드수원6F,3232A1091,37.287574,126.991554,1
스타벅스 스타필드수원1F,3232A1092,37.287123,126.991599,1
스타벅스 수원정자사거리DT,3232A1093,37.291196,127.004005,1
스타벅스 수원종합운동장,3232A1094,37.301320,127.008798,1
스타벅스 수원조원DT,3232A1095,37.295237,127.015770,1
스타벅스 수원경수인계DT,3232A1096,37.270568,127.027566,1
스타벅스 수원KBS DT,3232A1097,37.271122,127.035213,1
스타벅스 수원인계DT,3232A1098,37.267938,127.027948,1
스타벅스 수원이비스,3232A1099,37.259099,127.031155,1
스타벅스 수원매산,3232A1100,37.267382,127.002695,1
스타벅스 동수원DT,3232A1101,37.278110,127.033950,1
스타벅스 수원인계,3232A1102,37.265499,127.032902,1
스타벅스 아주대,3232A1103,37.279696,127.043340,1
스타벅스 수원성빈센트병원,3232A1104,37.277866,127.027952,1
스타벅스 수원화성행궁,3232A1105,37.283349,127.015668,1
스타벅스 수원나혜석거리,3232A1106,37.264256,127.034163,1
스타벅스 수원경인일보,3232A1107,37.261464,127.034631,1
스타벅스 수원역AK R,3232A1108,37.266832,127.000068,1
스타벅스 시흥대야DT,3232A1109,37.441713,126.787757,1
스타벅스 배곧아브뉴프랑,3232A1110,37.368200,126.729400,1
스타벅스 시흥대야동,3232A1111,37.441740,126.791869,1
스타벅스 배곧신도시,3232A1112,37.369269,126.730361,1
스타벅스 시흥대야,3232A1113,37.443912,126.790755,1
스타벅스 시흥P.아울렛 3F,3232A1114,37.379754,126.736396,1
스타벅스 시흥P.아울렛 1F,3232A1115,37.379754,126.736396,1
스타벅스 시화로데오,3232A1116,37.344660,126.737322,1
스타벅스 시흥월곶,3232A1117,37.389462,126.738860,1
스타벅스 물왕호수,3232A1118,37.382917,126.840701,1
스타벅스 시흥장현,3232A1119,37.378250,126.789078,1
스타벅스 시흥능곡역,3232A1120,37.370641,126.807497,1
스타벅스 시흥목감DT,3232A1121,37.377942,126.850140,1
스타벅스 시흥은계,3232A1122,37.437515,126.801633,1
스타벅스 안산고잔센트럴타워,3232A1123,37.318914,126.834241,1
스타벅스 안산상공회의소,3232A1124,37.318868,126.826297,1
스타벅스 고잔이마트,3232A1125,37.303177,126.812842,1
스타벅스 안산문화광장,3232A1126,37.310298,126.830517,1
스타벅스 안산중앙,3232A1127,37.318899,126.837464,1
스타벅스 안산중앙역,3232A1128,37.317236,126.837469,1
스타벅스 안산트레이더스,3232A1129,37.331038,126.784837,1
스타벅스 안산물의광장,3232A1130,37.313182,126.829583,1
스타벅스 안성석정DT,3232A1131,37.010463,127.262088,1
스타벅스 안성공도DT,3232A1132,37.009411,127.200801,1
스타벅스 안성서동대로DT,3232A1133,37.004817,127.182089,1
스타벅스 안성계동DT,3232A1134,36.986065,127.267837,1
스타벅스 스타필드안성R,3232A1135,36.994106,127.146958,1
스타벅스 호계지식산업센터,3232A1136,37.372519,126.948725,1
스타벅스 평촌역DT,3232A1137,37.396509,126.971235,1
스타벅스 안양범계,3232A1138,37.391692,126.953779,1
스타벅스 안양운동장사거리DT,3232A1139,37.401110,126.949208,1
스타벅스 범계역,3232A1140,37.389849,126.949818,1
스타벅스 안양호계DT,3232A1141,37.366561,126.956011,1
스타벅스 평촌호계,3232A1142,37.383090,126.959848,1
스타벅스 평촌로데오,3232A1143,37.392970,126.960582,1
스타벅스 평촌역사거리,3232A1144,37.395949,126.965092,1
스타벅스 안양비산DT,3232A1145,37.392543,126.942882,1
스타벅스 평촌아크로,3232A1146,37.392549,126.956297,1
스타벅스 범계로데오,3232A1147,37.391494,126.955122,1
스타벅스 인덕원역,3232A1148,37.400263,126.976314,1
스타벅스 안양덕현DT,3232A1149,37.371302,126.960220,1
스타벅스 안양이마트,3232A1150,37.398521,126.935224,1
스타벅스 안양역R,3232A1151,37.401964,126.922661,1
스타벅스 명학역,3232A1152,37.383707,126.934687,1
스타벅스 안양역,3232A1153,37.400285,126.922168,1
스타벅스 안양석수DT,3232A1154,37.431261,126.903338,1
스타벅스 안양일번가,3232A1155,37.399190,126.923686,1
스타벅스 양주옥정타운,3232A1156,37.818445,127.094130,1
스타벅스 양주송추DT,3232A1157,37.717529,126.973093,1
스타벅스 양주덕정역DT,3232A1158,37.838271,127.062979,1
스타벅스 양주고읍DT,3232A1159,37.803545,127.079392,1
스타벅스 양주광사DT,3232A1160,37.790746,127.072791,1
스타벅스 양주고읍,3232A1161,37.794628,127.079196,1
스타벅스 가나아트파크,3232A1162,37.726381,126.950080,1
스타벅스 양주옥정공원,3232A1163,37.821192,127.097458,1
스타벅스 양주회정DT,3232A1164,37.839584,127.054704,1
스타벅스 연천전곡DT,3232A1165,38.011827,127.068767,1
스타벅스 북오산IC DT,3232A1166,37.189820,127.058875,1
스타벅스 오산세교,3232A1167,37.176779,127.045583,1
스타벅스 오산갈곶DT,3232A1168,37.129186,127.071311,1
스타벅스 오산IC DT,3232A1169,37.142696,127.076853,1
스타벅스 오산시청,3232A1170,37.148625,127.074129,1
스타벅스 오산부산동DT,3232A1171,37.158994,127.092428,1
스타벅스 오산원동DT,3232A1172,37.144181,127.073877,1
스타벅스 서동탄DT,3232A1173,37.197419,127.064980,1
스타벅스 오산수청DT,3232A1174,37.162981,127.066693,1
스타벅스 용인세브란스병원,3232A1175,37.270723,127.147562,1
스타벅스 용인상하DT,3232A1176,37.259778,127.142453,1
스타벅스 용인언남,3232A1177,37.292629,127.122069,1
스타벅스 기흥역AK R,3232A1178,37.274654,127.116562,1
스타벅스 용인고매동,3232A1179,37.223175,127.114162,1
스타벅스 용인보라DT,3232A1180,37.255575,127.104577,1
스타벅스 용인동백DT,3232A1181,37.274595,127.141221,1
스타벅스 용인마북DT,3232A1182,37.294732,127.110293,1
스타벅스 용인기흥구청,3232A1183,37.280808,127.110877,1
스타벅스 수원IC DT,3232A1184,37.267241,127.074871,1
스타벅스 용인보정,3232A1185,37.320017,127.110840,1
스타벅스 구성트레이더스,3232A1186,37.305434,127.105468,1
스타벅스 강남대,3232A1187,37.271054,127.125999,1
스타벅스 용인하갈DT,3232A1188,37.249298,127.087736,1
스타벅스 용인흥덕DT,3232A1189,37.274841,127.071820,1
스타벅스 삼성디스플레이SDR,3232A1190,37.225417,127.087317,1
스타벅스 기흥테라타워,3232A1191,37.230764,127.071000,1
스타벅스 용인보정DT,3232A1192,37.321478,127.104161,1
스타벅스 한국민속촌DT,3232A1193,37.255933,127.116911,1
스타벅스 동백이마트,3232A1194,37.278145,127.151425,1
스타벅스 용인신갈DT,3232A1195,37.272777,127.110316,1
스타벅스 용인김량장DT,3232A1196,37.239640,127.210568,1
스타벅스 용인에버랜드,3232A1197,37.294988,127.203199,1
스타벅스 용인시청DT,3232A1198,37.240290,127.170935,1
스타벅스 용인처인구청,3232A1199,37.234764,127.202928,1
스타벅스 용인한숲시티,3232A1200,37.152464,127.173575,1
스타벅스 용인마평DT,3232A1201,37.233663,127.216811,1
스타벅스 용인역북,3232A1202,37.232254,127.188747,1
스타벅스 용인고림DT,3232A1203,37.243953,127.218063,1
스타벅스 용인모현DT,3232A1204,37.348976,127.249308,1
스타벅스 용인IC DT,3232A1205,37.251410,127.212133,1
스타벅스 의왕청계DT,3232A1206,37.388372,126.998385,1
스타벅스 의왕포일,3232A1207,37.396043,126.984350,1
스타벅스 의왕현대모비스,3232A1208,37.324696,126.951970,1
스타벅스 의왕내손,3232A1209,37.389127,126.976738,1
스타벅스 의왕롯데몰,3232A1210,37.375266,127.008631,1
스타벅스 의왕삼동DT,3232A1211,37.316653,126.957363,1
스타벅스 의정부예술의전당DT,3232A1212,37.733053,127.038848,1
스타벅스 의정부신곡DT,3232A1213,37.726826,127.064015,1
스타벅스 의정부용현DT,3232A1214,37.730390,127.084246,1
스타벅스 의정부공원,3232A1215,37.740103,127.047531,1
스타벅스 의정부민락,3232A1216,37.745451,127.093964,1
스타벅스 의정부회룡역DT,3232A1217,37.722373,127.047477,1
스타벅스 의정부녹양DT,3232A1218,37.758477,127.040289,1
스타벅스 의정부금오,3232A1219,37.753009,127.070461,1
스타벅스 신세계의정부2F,3232A1220,37.738288,127.046353,1
스타벅스 신세계의정부6F,3232A1221,37.737484,127.045757,1
스타벅스 의정부송산역DT,3232A1222,37.740164,127.085686,1
스타벅스 의정부민락타운,3232A1223,37.744429,127.098713,1
스타벅스 의정부장암DT,3232A1224,37.699250,127.054650,1
스타벅스 의정부이마트,3232A1225,37.743227,127.102500,1
스타벅스 이천증포DT,3232A1226,37.296604,127.457292,1
스타벅스 이천사음DT,3232A1227,37.299106,127.407841,1
스타벅스 이천하이닉스,3232A1228,37.252510,127.489933,1
스타벅스 이천터미널,3232A1229,37.278191,127.446323,1
스타벅스 이천IC DT,3232A1230,37.257791,127.482915,1
스타벅스 포천DT,3232A1231,37.848416,127.161831,1
스타벅스 광릉수목원,3232A1232,37.776503,127.165247,1
스타벅스 포천호국로DT,3232A1233,37.796534,127.127242,1
스타벅스 포천내촌DT,3232A1234,37.763241,127.225236,1
스타벅스 하남미사DT,3232A1235,37.559972,127.185791,1
스타벅스 하남황산사거리,3232A1236,37.550783,127.186033,1
스타벅스 스타필드위례1FR,3232A1237,37.480410,127.148140,1
스타벅스 미사역효성,3232A1238,37.567249,127.190308,1
스타벅스 하남덕풍,3232A1239,37.552153,127.209288,1
스타벅스 하남미사,3232A1240,37.569612,127.183415,1
스타벅스 스타필드하남1F(티바나),3232A1241,37.544779,127.223604,1
스타벅스 신세계하남2F,3232A1242,37.545994,127.221885,1
스타벅스 스타필드하남2FR,3232A1243,37.545214,127.224262,1
스타벅스 하남신장,3232A1244,37.538381,127.203986,1
스타벅스 하남시청,3232A1245,37.540585,127.216036,1
스타벅스 하남시청역,3232A1246,37.541417,127.208027,1
스타벅스 하남풍산역,3232A1247,37.553552,127.205342,1
스타벅스 하남감일,3232A1248,37.507411,127.155101,1
스타벅스 미사역그랑파사쥬,3232A1249,37.564213,127.191529,1
스타벅스 미사역파라곤스퀘어,3232A1250,37.564317,127.192825,1
스타벅스 화성시청,3232A1251,37.200878,126.826047,1
스타벅스 화성봉담,3232A1252,37.218656,126.955386,1
스타벅스 화성향남,3232A1253,37.131572,126.922767,1
스타벅스 동탄카림,3232A1254,37.199211,127.112946,1
스타벅스 동탄능동DT,3232A1255,37.212139,127.053557,1
스타벅스 동탄역,3232A1256,37.197796,127.098403,1
스타벅스 화성병점DT,3232A1257,37.212704,127.038292,1
스타벅스 동탄영천,3232A1258,37.206736,127.111380,1
스타벅스 신영통DT,3232A1259,37.234379,127.062955,1
스타벅스 동탄센트럴파크,3232A1260,37.208244,127.063890,1
스타벅스 동탄,3232A1261,37.201742,127.072973,1
스타벅스 동탄광장,3232A1262,37.204887,127.071810,1
스타벅스 동탄이마트,3232A1263,37.214170,127.079398,1
스타벅스 송산마도IC DT,3232A1264,37.207217,126.777694,1
스타벅스 동탄북광장,3232A1265,37.206887,127.074505,1
스타벅스 동탄산단DT,3232A1266,37.164446,127.086535,1
스타벅스 동탄라크몽,3232A1267,37.167246,127.105006,1
스타벅스 화성남양DT,3232A1268,37.206964,126.819199,1
스타벅스 화성봉담DT,3232A1269,37.228325,126.971579,1
스타벅스 동탄목동,3232A1270,37.182500,127.124660,1
스타벅스 화성반월DT,3232A1271,37.220177,127.057960,1
스타벅스 동탄여울공원,3232A1272,37.201256,127.089920,1
스타벅스 화성보통저수지,3232A1273,37.192495,126.978487,1
스타벅스 삼성전자DSR,3232A1274,37.226129,127.070494,1
스타벅스 동탄트레이더스,3232A1275,37.193406,127.097288,1
스타벅스 동탄신리천공원,3232A1276,37.183819,127.107312,1
스타벅스 화성향남DT,3232A1277,37.131949,126.910002,1
스타벅스 송산그린시티,3232A1278,37.284793,126.818368,1
스타벅스 동탄타임테라스,3232A1279,37.204292,127.069308,1
스타벅스 동탄IX타워,3232A1280,37.211114,127.089129,1
스타벅스 동탄역롯데R,3232A1281,37.199829,127.096524,1
스타벅스 화성안녕DT,3232A1282,37.202634,127.012916,1
스타벅스 동탄디엠시티,3232A1283,37.209675,127.099514,1
스타벅스 화성향남2지구,3232A1284,37.116359,126.910786,1
스타벅스 남양화성로DT,3232A1285,37.211056,126.813204,1
스타벅스 화성향남발안DT,3232A1286,37.133490,126.941213,1
스타벅스 동탄호수공원,3232A1287,37.172152,127.106201,1
스타벅스 삼송역,3232A1288,37.652262,126.896238,1
스타벅스 원흥역,3232A1289,37.649418,126.876687,1
스타벅스 스타필드고양3F,3232A1290,37.647216,126.895577,1
스타벅스 스타필드고양1FR,3232A1291,37.646970,126.895523,1
스타벅스 고양삼송,3232A1292,37.663673,126.891292,1
스타벅스 고양DT,3232A1293,37.709539,126.905295,1
스타벅스 행신역,3232A1294,37.614113,126.834331,1
스타벅스 원당DT,3232A1295,37.658155,126.837639,1
스타벅스 화정,3232A1296,37.633532,126.831454,1
스타벅스 화정역,3232A1297,37.633451,126.832906,1
스타벅스 고양덕은,3232A1298,37.579508,126.870239,1
스타벅스 고양행신,3232A1299,37.623815,126.834306,1
스타벅스 고양원흥DT,3232A1300,37.636819,126.869261,1
스타벅스 고양향동,3232A1301,37.598841,126.892661,1
스타벅스 지축역,3232A1302,37.649902,126.914310,1
스타벅스 화정호국로,3232A1303,37.641816,126.829596,1
스타벅스 신흥역,3232A1304,37.440935,127.146642,1
스타벅스 성남위례,3232A1305,37.472839,127.141062,1
스타벅스 성남이마트,3232A1306,37.444247,127.141457,1
스타벅스 가천대학교,3232A1307,37.449410,127.127200,1
스타벅스 수진역,3232A1308,37.438990,127.142250,1
스타벅스 성남태평,3232A1309,37.442561,127.136589,1
스타벅스 판교아이스퀘어,3232A1310,37.413028,127.098156,1
스타벅스 성남모란삼성,3232A1311,37.433909,127.127859,1
스타벅스 남위례역,3232A1312,37.464600,127.141420,1
스타벅스 판교제2테크노밸리,3232A1313,37.411085,127.094632,1
스타벅스 여주DT,3232A1314,37.266139,127.638536,1
스타벅스 여주P.아울렛입구,3232A1315,37.240511,127.611900,1
스타벅스 여주P.아울렛,3232A1316,37.242436,127.612395,1
스타벅스 여주프리미엄빌리지,3232A1317,37.242643,127.615343,1
스타벅스 여주남한강DT,3232A1318,37.300414,127.648162,1
스타벅스 여주자유CC,3232A1319,37.208983,127.570274,1
스타벅스 서여주IC DT,3232A1320,37.298135,127.602934,1
스타벅스 평택비전,3232A1321,36.998828,127.114264,1
스타벅스 평택서정DT,3232A1322,37.066066,127.063519,1
스타벅스 평택안중DT,3232A1323,36.990816,126.913376,1
스타벅스 평택로데오,3232A1324,36.991830,127.088400,1
스타벅스 평택AK플라자,3232A1325,36.991890,127.085398,1
스타벅스 평택송탄,3232A1326,37.066591,127.063044,1
스타벅스 평택독곡DT,3232A1327,37.087082,127.063120,1
스타벅스 평택이충DT,3232A1328,37.051970,127.077130,1
스타벅스 평택죽백DT,3232A1329,37.013807,127.113461,1
스타벅스 평택청북DT,3232A1330,37.020173,126.915001,1
스타벅스 평택고덕에듀타운,3232A1331,37.036367,127.027383,1
스타벅스 평택대DT,3232A1332,36.993363,127.134633,1
스타벅스 평택고덕,3232A1333,37.040236,127.051186,1
스타벅스 평택이마트,3232A1334,37.020935,127.076011,1
스타벅스 평택세교DT,3232A1335,37.007341,127.078798,1
스타벅스 평택팽성DT,3232A1336,36.954836,127.059957,1
스타벅스 평택비전DT,3232A1337,37.011254,127.104631,1
스타벅스 주엽강선,3232A1338,37.666326,126.766789,1
스타벅스 일산가로수길,3232A1339,37.665712,126.757179,1
스타벅스 일산가구단지,3232A1340,37.699570,126.756672,1
스타벅스 일산덕이DT,3232A1341,37.691947,126.756674,1
스타벅스 일산후곡,3232A1342,37.677387,126.767570,1
스타벅스 더타운몰킨텍스,3232A1343,37.662238,126.743981,1
스타벅스 일산탄현제니스,3232A1344,37.694169,126.763697,1
스타벅스 대화역,3232A1345,37.675376,126.748189,1
스타벅스 일산주엽,3232A1346,37.669903,126.762657,1
스타벅스 현대킨텍스,3232A1347,37.668128,126.751207,1
스타벅스 문촌사거리,3232A1348,37.672648,126.756613,1
스타벅스 일산탄현동,3232A1349,37.695167,126.764478,1
스타벅스 풍무역DT,3232A1350,37.610370,126.737528,1
스타벅스 풍무사거리DT,3232A1351,37.607845,126.722837,1
스타벅스 김포아이앤씨,3232A1352,37.638769,126.680464,1
스타벅스 김포구래,3232A1353,37.645803,126.629073,1
스타벅스 김포장기커낼,3232A1354,37.639600,126.677648,1
스타벅스 김포감정DT,3232A1355,37.624786,126.696429,1
스타벅스 김포운양,3232A1356,37.654309,126.684173,1
스타벅스 김포이마트,3232A1357,37.644437,126.628230,1
스타벅스 김포풍무DT,3232A1358,37.600112,126.720441,1
스타벅스 김포시청,3232A1359,37.618396,126.717912,1
스타벅스 김포장기,3232A1360,37.644239,126.667908,1
스타벅스 김포통진DT,3232A1361,37.682934,126.619100,1
스타벅스 김포현대아울렛3층,3232A1362,37.599328,126.785581,1
스타벅스 김포구래DT,3232A1363,37.634777,126.627616,1
스타벅스 김포석모DT,3232A1364,37.651279,126.649880,1
스타벅스 김포걸포,3232A1365,37.631846,126.702037,1
스타벅스 김포양촌역DT,3232A1366,37.647636,126.619733,1
스타벅스 김포마산역,3232A1367,37.637469,126.644416,1
스타벅스 김포한강로DT,3232A1368,37.650752,126.654653,1
스타벅스 부천상동역,3232A1369,37.506210,126.754270,1
스타벅스 스타필드부천,3232A1370,37.461162,126.813510,1
스타벅스 부천옥길,3232A1371,37.467656,126.823317,1
스타벅스 부천심곡DT,3232A1372,37.492932,126.784410,1
스타벅스 뉴코아부천,3232A1373,37.504279,126.756992,1
스타벅스 중동이마트,3232A1374,37.504065,126.763545,1
스타벅스 부천중동DT,3232A1375,37.496374,126.764200,1
스타벅스 부천신중동역,3232A1376,37.503765,126.774144,1
스타벅스 역곡역DT,3232A1377,37.483524,126.809310,1
스타벅스 부천중동,3232A1378,37.497976,126.777020,1
스타벅스 부천시청역,3232A1379,37.505155,126.762691,1
스타벅스 현대중동,3232A1380,37.504514,126.760651,1
스타벅스 부천플레이도시,3232A1381,37.500302,126.743851,1
스타벅스 송내역,3232A1382,37.488389,126.752604,1
스타벅스 부천상동,3232A1383,37.505357,126.752554,1
스타벅스 부천상일로,3232A1384,37.491238,126.755625,1
스타벅스 중동삼성,3232A1385,37.503181,126.770616,1
스타벅스 부천역,3232A1386,37.483904,126.782295,1
스타벅스 부천옥길DT,3232A1387,37.472022,126.816096,1
스타벅스 부천상동DT,3232A1388,37.515682,126.758576,1
스타벅스 부천원종DT,3232A1389,37.529734,126.805451,1
스타벅스 부천중동센트럴,3232A1390,37.501698,126.768647,1
스타벅스 춘의역DT,3232A1391,37.503080,126.785460,1
스타벅스 신중동,3232A1392,37.500311,126.776463,1
스타벅스 소사역,3232A1393,37.481650,126.794930,1
스타벅스 광교갤러리아9F,3232A1394,37.285343,127.057235,1
스타벅스 수원법조타운,3232A1395,37.291840,127.067164,1
스타벅스 광교역,3232A1396,37.300586,127.044101,1
스타벅스 광교엘포트R,3232A1397,37.286995,127.057782,1
스타벅스 영통R,3232A1398,37.245605,127.062159,1
스타벅스 수원망포DT,3232A1399,37.245828,127.051340,1
스타벅스 수원광교,3232A1400,37.290262,127.049762,1
스타벅스 수원트레이더스,3232A1401,37.246314,127.048026,1
스타벅스 경희대국제캠퍼스,3232A1402,37.247951,127.076749,1
스타벅스 수원망포역,3232A1403,37.245212,127.056207,1
스타벅스 광교이마트,3232A1404,37.296200,127.046564,1
스타벅스 수원영통,3232A1405,37.255608,127.074645,1
스타벅스 수원매탄,3232A1406,37.258053,127.045423,1
스타벅스 광교갤러리아6F,3232A1407,37.285398,127.057218,1
스타벅스 광교더샵레이크시티,3232A1408,37.270796,127.060012,1
스타벅스 수원청명,3232A1409,37.254605,127.078292,1
스타벅스 광교SK뷰레이크41F,3232A1410,37.287493,127.060073,1
스타벅스 안산한양대,3232A1411,37.300847,126.838212,1
스타벅스 안산한대앞역,3232A1412,37.308754,126.851175,1
스타벅스 안산삼성,3232A1413,37.306174,126.847872,1
스타벅스 경기양평,3232A1414,37.491066,127.499953,1
스타벅스 더양평DT,3232A1415,37.497005,127.481752,1
스타벅스 용인죽전,3232A1416,37.331352,127.109183,1
스타벅스 죽전단국대,3232A1417,37.324402,127.124943,1
스타벅스 수지동천,3232A1418,37.335988,127.091010,1
스타벅스 죽전,3232A1419,37.331506,127.124790,1
스타벅스 수지성복DT,3232A1420,37.314048,127.079162,1
스타벅스 광교중앙로,3232A1421,37.298958,127.069339,1
스타벅스 스타필드마켓죽전,3232A1422,37.325374,127.109926,1
스타벅스 신세계사우스시티,3232A1423,37.325004,127.108133,1
스타벅스 수지이마트,3232A1424,37.319650,127.083677,1
스타벅스 수지풍덕천,3232A1425,37.322169,127.095266,1
스타벅스 용인고기동유원지,3232A1426,37.359607,127.055438,1
스타벅스 수지구청역,3232A1427,37.323105,127.094885,1
스타벅스 수지성복역,3232A1428,37.312796,127.080201,1
스타벅스 파주P.아울렛1F,3232A1429,37.769258,126.694700,1
스타벅스 파주야당역,3232A1430,37.712142,126.759475,1
스타벅스 파주금촌역,3232A1431,37.764081,126.774205,1
스타벅스 파주금릉역,3232A1432,37.752207,126.765613,1
스타벅스 파주운정,3232A1433,37.712030,126.744499,1
스타벅스 파주P.아울렛3F,3232A1434,37.768974,126.696320,1
스타벅스 파주문산DT,3232A1435,37.846438,126.789040,1
스타벅스 파주가람,3232A1436,37.735972,126.759841,1
스타벅스 파주산내,3232A1437,37.728707,126.735514,1
스타벅스 파주LGD,3232A1438,37.809879,126.767701,1
스타벅스 파주야당DT,3232A1439,37.703460,126.759640,1
스타벅스 파주운정이마트,3232A1440,37.710647,126.745450,1
스타벅스 지행역,3232A1441,37.892700,127.053467,1
스타벅스 동두천DT,3232A1442,37.889099,127.057012,1
스타벅스 동두천송내DT,3232A1443,37.880869,127.055633,1
스타벅스 광주선운DT,3232A1444,35.146892,126.777528,1
스타벅스 광주산정DT,3232A1445,35.173524,126.804191,1
스타벅스 광주흑석DT,3232A1446,35.176964,126.807929,1
스타벅스 광주송정역,3232A1447,35.138034,126.791380,1
스타벅스 광주수완DT,3232A1448,35.203095,126.819069,1
스타벅스 광주신가DT,3232A1449,35.179047,126.830126,1
스타벅스 광주쌍암,3232A1450,35.219311,126.842304,1
스타벅스 광주장덕,3232A1451,35.191067,126.819243,1
스타벅스 광주하남,3232A1452,35.162600,126.810323,1
스타벅스 광주첨단,3232A1453,35.214718,126.843466,1
스타벅스 광산수완,3232A1454,35.190521,126.824718,1
스타벅스 광주신창강변DT,3232A1455,35.188845,126.857650,1
스타벅스 광주첨단DT,3232A1456,35.206238,126.847734,1
스타벅스 광주비아DT,3232A1457,35.223206,126.834879,1
스타벅스 광주송정로,3232A1458,35.137191,126.791658,1
스타벅스 광주월산DT,3232A1459,35.145516,126.890794,1
스타벅스 광주주월DT,3232A1460,35.134139,126.898137,1
스타벅스 광주효천DT,3232A1461,35.100033,126.871253,1
스타벅스 광주봉선로,3232A1462,35.124262,126.907898,1
스타벅스 광주서문대로,3232A1463,35.119448,126.898595,1
스타벅스 광주방림DT,3232A1464,35.134980,126.917698,1
스타벅스 광주봉선중앙,3232A1465,35.125420,126.911251,1
스타벅스 광주진월,3232A1466,35.125781,126.897221,1
스타벅스 광주봉선,3232A1467,35.122921,126.914111,1
스타벅스 봉선이마트,3232A1468,35.122413,126.916026,1
스타벅스 광주지산DT,3232A1469,35.149728,126.929070,1
스타벅스 광주동명,3232A1470,35.150362,126.923618,1
스타벅스 광주지원DT,3232A1471,35.118523,126.933345,1
스타벅스 광주지산유원지입구,3232A1472,35.154459,126.940912,1
스타벅스 광주황금,3232A1473,35.147357,126.914568,1
스타벅스 충장서림,3232A1474,35.148088,126.917308,1
스타벅스 충장일가,3232A1475,35.146797,126.918252,1
스타벅스 조선대,3232A1476,35.144608,126.930183,1
스타벅스 광주충장DT,3232A1477,35.144342,126.914971,1
스타벅스 광주오치,3232A1478,35.187453,126.898903,1
스타벅스 광주연제DT,3232A1479,35.197688,126.866803,1
스타벅스 광주신안DT,3232A1480,35.171678,126.894998,1
스타벅스 광주매곡DT,3232A1481,35.189836,126.898698,1
스타벅스 광주두암타운,3232A1482,35.162112,126.937388,1
스타벅스 광주일곡,3232A1483,35.205463,126.898114,1
스타벅스 광주북구청,3232A1484,35.174830,126.914469,1
스타벅스 광주첨단신용,3232A1485,35.207010,126.864115,1
스타벅스 광주용두DT,3232A1486,35.212837,126.868485,1
스타벅스 전남대,3232A1487,35.177199,126.912479,1
스타벅스 광주용봉,3232A1488,35.178664,126.895196,1
스타벅스 광주각화DT,3232A1489,35.188644,126.933599,1
스타벅스 동광주DT,3232A1490,35.175874,126.927584,1
스타벅스 광주양산DT,3232A1491,35.208888,126.874190,1
스타벅스 광주신세계DT,3232A1492,35.156251,126.882752,1
스타벅스 광주상무DT,3232A1493,35.149932,126.854823,1
스타벅스 광주화정DT,3232A1494,35.152205,126.879997,1
스타벅스 광주상무중앙로,3232A1495,35.151021,126.848815,1
스타벅스 광주상무시민로,3232A1496,35.154963,126.854437,1
스타벅스 광주풍암,3232A1497,35.126845,126.879649,1
스타벅스 광주금호DT,3232A1498,35.142113,126.857665,1
스타벅스 광주상무대교,3232A1499,35.155100,126.848788,1
스타벅스 광주동림,3232A1500,35.171734,126.866180,1
스타벅스 상무치평,3232A1501,35.151968,126.853423,1
스타벅스 상무역,3232A1502,35.147468,126.847989,1
스타벅스 신세계광주신관B1,3232A1503,35.158806,126.882069,1
스타벅스 광주풍암호수공원,3232A1504,35.125275,126.869198,1
스타벅스 서광주DT,3232A1505,35.129468,126.847401,1
스타벅스 광주염주,3232A1506,35.142071,126.875287,1
스타벅스 광주광천,3232A1507,35.159037,126.883464,1
스타벅스 광주상무,3232A1508,35.153621,126.847954,1
스타벅스 대구앞산DT,3232A1509,35.835516,128.579871,1
스타벅스 영남대학교의료원영의관,3232A1510,35.845948,128.585217,1
스타벅스 대구가톨릭대학교병원,3232A1511,35.843390,128.567422,1
스타벅스 영남대학교의료원,3232A1512,35.847363,128.585111,1
스타벅스 대구앞산스카이타운,3232A1513,35.832361,128.566889,1
스타벅스 계명대동산병원,3232A1514,35.853811,128.480276,1
스타벅스 대구죽전역,3232A1515,35.848745,128.536579,1
스타벅스 대구월곡DT,3232A1516,35.814866,128.541057,1
스타벅스 대구광장,3232A1517,35.855770,128.552811,1
스타벅스 대구월촌역,3232A1518,35.824025,128.545226,1
스타벅스 대구진천역,3232A1519,35.814395,128.524377,1
스타벅스 대구도원DT,3232A1520,35.807812,128.548117,1
스타벅스 대구월성,3232A1521,35.824320,128.525727,1
스타벅스 대구수목원,3232A1522,35.807252,128.520265,1
스타벅스 대구성서IC DT,3232A1523,35.850800,128.520260,1
스타벅스 대구감삼DT,3232A1524,35.844384,128.536655,1
스타벅스 대구상인역,3232A1525,35.818277,128.536569,1
스타벅스 대구두류DT,3232A1526,35.858804,128.561685,1
스타벅스 대구상인DT,3232A1527,35.822735,128.533730,1
스타벅스 대구계명대,3232A1528,35.855673,128.493725,1
스타벅스 대구성서,3232A1529,35.855292,128.510127,1
스타벅스 대구서부정류장역,3232A1530,35.837881,128.556926,1
스타벅스 대구이월드,3232A1531,35.854025,128.563417,1
스타벅스 대구대천,3232A1532,35.817242,128.517839,1
스타벅스 대구월성네거리,3232A1533,35.825419,128.529254,1
스타벅스 신세계대구3F(티바나),3232A1534,35.877767,128.628498,1
스타벅스 신세계대구8FR,3232A1535,35.877812,128.628453,1
스타벅스 동대구로DT,3232A1536,35.868087,128.627159,1
스타벅스 대구팔공산,3232A1537,35.987869,128.636347,1
스타벅스 대구봉무,3232A1538,35.921942,128.639708,1
스타벅스 동대구터미널,3232A1539,35.876279,128.628735,1
스타벅스 대구동촌유원지,3232A1540,35.880110,128.653159,1
스타벅스 반야월이마트,3232A1541,35.870899,128.727397,1
스타벅스 대구방촌DT,3232A1542,35.877359,128.666495,1
스타벅스 대구신천DT,3232A1543,35.874882,128.621110,1
스타벅스 대구팔공로DT,3232A1544,35.928460,128.641830,1
스타벅스 대구율하,3232A1545,35.863537,128.693927,1
스타벅스 대구각산역DT,3232A1546,35.868908,128.726121,1
스타벅스 대구연경DT,3232A1547,35.942907,128.630979,1
스타벅스 대구파티마병원,3232A1548,35.884270,128.624345,1
스타벅스 대구평리DT,3232A1549,35.865945,128.555320,1
스타벅스 대구수성도서관DT,3232A1550,35.872749,128.639001,1
스타벅스 대구그랜드호텔R,3232A1551,35.857762,128.625325,1
스타벅스 국립대구박물관DT,3232A1552,35.845491,128.639059,1
스타벅스 대구수성네거리DT,3232A1553,35.860580,128.617977,1
스타벅스 대구중동DT,3232A1554,35.847384,128.612529,1
스타벅스 대구중동네거리DT,3232A1555,35.840917,128.613963,1
스타벅스 대구상동DT,3232A1556,35.829642,128.611693,1
스타벅스 대구황금DT,3232A1557,35.839069,128.625797,1
스타벅스 대구삼성화재,3232A1558,35.866096,128.626281,1
스타벅스 대구시지,3232A1559,35.839493,128.708043,1
스타벅스 대구만촌DT,3232A1560,35.856337,128.650233,1
스타벅스 대구수성하이츠,3232A1561,35.860423,128.613582,1
스타벅스 동아수성,3232A1562,35.821166,128.640127,1
스타벅스 수성레이크,3232A1563,35.825764,128.621814,1
스타벅스 대구범어제니스,3232A1564,35.859250,128.629559,1
스타벅스 대구두산DT,3232A1565,35.827283,128.625849,1
스타벅스 대구들안길DT,3232A1566,35.837524,128.616360,1
스타벅스 대구만촌이마트,3232A1567,35.871206,128.637153,1
스타벅스 대구신매역,3232A1568,35.839715,128.704902,1
스타벅스 대구범어푸르지오,3232A1569,35.861236,128.622831,1
스타벅스 대구수성동,3232A1570,35.853776,128.620304,1
스타벅스 대구시티센터,3232A1571,35.870954,128.598092,1
스타벅스 대구계산,3232A1572,35.866429,128.589696,1
스타벅스 대구중앙로역,3232A1573,35.870674,128.594374,1
스타벅스 대구공평DT,3232A1574,35.869559,128.600679,1
스타벅스 반월당,3232A1575,35.866147,128.592018,1
스타벅스 동성로광장,3232A1576,35.867319,128.594217,1
스타벅스 동성로로데오,3232A1577,35.867230,128.597862,1
스타벅스 대구종로고택,3232A1578,35.868429,128.592472,1
스타벅스 대구반월삼성,3232A1579,35.866145,128.593048,1
스타벅스 대구228중앙공원,3232A1580,35.870193,128.596910,1
스타벅스 대구칠성DT,3232A1581,35.879674,128.596391,1
스타벅스 대구유통단지,3232A1582,35.905624,128.613347,1
스타벅스 대구칠곡대로DT,3232A1583,35.926851,128.547885,1
스타벅스 대구동천,3232A1584,35.942539,128.560438,1
스타벅스 대구침산DT,3232A1585,35.887478,128.591838,1
스타벅스 대구칠곡,3232A1586,35.942179,128.563879,1
스타벅스 경북대,3232A1587,35.892320,128.608586,1
스타벅스 대구도남,3232A1588,35.952919,128.583385,1
스타벅스 대구복현DT,3232A1589,35.896764,128.614642,1
스타벅스 대구칠곡읍내DT,3232A1590,35.951840,128.553129,1
스타벅스 대구칠성이마트,3232A1591,35.885073,128.589755,1
스타벅스 칠곡경북대학교병원,3232A1592,35.956922,128.563525,1
스타벅스 대구금호,3232A1593,35.896040,128.514565,1
스타벅스 대구태전DT,3232A1594,35.909903,128.548729,1
스타벅스 대구테크노폴리스,3232A1595,35.693334,128.459251,1
스타벅스 대구죽곡,3232A1596,35.859055,128.464166,1
스타벅스 대구현풍DT,3232A1597,35.691524,128.444761,1
스타벅스 대구국가산단DT,3232A1598,35.652634,128.418064,1
스타벅스 대전IC DT,3232A1599,36.354239,127.444259,1
스타벅스 대전신탄진DT,3232A1600,36.448660,127.419983,1
스타벅스 대전송촌,3232A1601,36.366237,127.438026,1
스타벅스 신탄진금강DT,3232A1602,36.454619,127.428820,1
스타벅스 대전터미널DT,3232A1603,36.347995,127.434241,1
스타벅스 대전판암DT,3232A1604,36.317013,127.453623,1
스타벅스 대전스타일마켓,3232A1605,36.350196,127.437304,1
스타벅스 대전가오,3232A1606,36.307020,127.456130,1
스타벅스 대전신흥역DT,3232A1607,36.318958,127.451147,1
스타벅스 대전용운,3232A1608,36.328996,127.467116,1
스타벅스 대전용전DT,3232A1609,36.357196,127.435505,1
스타벅스 대전정부청사역,3232A1610,36.358046,127.382279,1
스타벅스 대전건양대병원,3232A1611,36.307469,127.341005,1
스타벅스 대전탄방역,3232A1612,36.343242,127.385313,1
스타벅스 대전복수,3232A1613,36.298345,127.378240,1
스타벅스 대전둔산남로,3232A1614,36.348893,127.388665,1
스타벅스 대전둔산로,3232A1615,36.354233,127.377273,1
스타벅스 대전법원,3232A1616,36.353315,127.387437,1
스타벅스 대전가수원DT,3232A1617,36.303759,127.348799,1
스타벅스 대전수침교DT,3232A1618,36.334968,127.396729,1
스타벅스 대전관저,3232A1619,36.298718,127.338069,1
스타벅스 대전대덕로,3232A1620,36.353466,127.380591,1
스타벅스 대전목원대,3232A1621,36.331808,127.338655,1
스타벅스 대전둔산,3232A1622,36.350219,127.377261,1
스타벅스 대전만년,3232A1623,36.367606,127.382002,1
스타벅스 대전시청사거리,3232A1624,36.348036,127.383509,1
스타벅스 대전월평,3232A1625,36.361008,127.377288,1
스타벅스 둔산은하수,3232A1626,36.352948,127.377788,1
스타벅스 대전탄방,3232A1627,36.346397,127.387888,1
스타벅스 대전시청역,3232A1628,36.350974,127.389499,1
스타벅스 대전호텔,3232A1629,36.359059,127.387726,1
스타벅스 월평트레이더스,3232A1630,36.358025,127.363093,1
스타벅스 대전시청역8번출구,3232A1631,36.350571,127.387407,1
스타벅스 둔산대덕대로,3232A1632,36.350733,127.378469,1
스타벅스 둔산삼성스토어,3232A1633,36.355434,127.379975,1
스타벅스 대전갈마DT,3232A1634,36.351481,127.370491,1
스타벅스 대전용문DT,3232A1635,36.335009,127.389710,1
스타벅스 도안레이크타워,3232A1636,36.325836,127.348530,1
스타벅스 대전관저네거리,3232A1637,36.301831,127.334517,1
스타벅스 대전반석역,3232A1638,36.391646,127.314220,1
스타벅스 대전도안DT,3232A1639,36.351358,127.340252,1
스타벅스 대전유성구청,3232A1640,36.362206,127.357705,1
스타벅스 대전지족,3232A1641,36.387205,127.317555,1
스타벅스 대전유성,3232A1642,36.354522,127.339554,1
스타벅스 대전전민,3232A1643,36.399440,127.400525,1
스타벅스 대전관평동,3232A1644,36.425514,127.392630,1
스타벅스 대전조이마루,3232A1645,36.376455,127.390802,1
스타벅스 대전노은,3232A1646,36.373444,127.319446,1
스타벅스 충남대정문,3232A1647,36.360660,127.344640,1
스타벅스 대전테크노밸리,3232A1648,36.425176,127.389608,1
스타벅스 대전문지,3232A1649,36.392449,127.405523,1
스타벅스 신세계대전R,3232A1650,36.375269,127.381580,1
스타벅스 대전현대아울렛,3232A1651,36.424000,127.398625,1
스타벅스 대전유성NC,3232A1652,36.353578,127.343794,1
스타벅스 대전구암DT,3232A1653,36.348707,127.332612,1
스타벅스 신세계대전B1,3232A1654,36.375188,127.381379,1
스타벅스 대전엑스포스카이,3232A1655,36.374894,127.383239,1
스타벅스 대전송강,3232A1656,36.434194,127.388185,1
스타벅스 대전대사DT,3232A1657,36.318823,127.417463,1
스타벅스 대전태평,3232A1658,36.323070,127.393420,1
스타벅스 대전유천DT,3232A1659,36.318336,127.398254,1
스타벅스 대전중앙로R,3232A1660,36.327962,127.426603,1
스타벅스 은행동,3232A1661,36.329079,127.427657,1
스타벅스 대전목동DT,3232A1662,36.332867,127.410961,1
스타벅스 서대전네거리,3232A1663,36.323070,127.411203,1
스타벅스 금정구청DT,3232A1664,35.238810,129.093018,1
스타벅스 온천장역DT,3232A1665,35.224006,129.086560,1
스타벅스 부산대정문,3232A1666,35.232122,129.084496,1
스타벅스 부산대역,3232A1667,35.230522,129.088694,1
스타벅스 금정이마트,3232A1668,35.249820,129.090782,1
스타벅스 금정구서,3232A1669,35.246908,129.088738,1
스타벅스 부산서동,3232A1670,35.214639,129.105584,1
스타벅스 용호동W스퀘어,3232A1671,35.133701,129.113324,1
스타벅스 동명대DT,3232A1672,35.123120,129.099016,1
스타벅스 BIFC Mall,3232A1673,35.146310,129.065889,1
스타벅스 부산대연역,3232A1674,35.135036,129.093100,1
스타벅스 경성대,3232A1675,35.137346,129.100638,1
스타벅스 문현이마트,3232A1676,35.144695,129.064304,1
스타벅스 부산유엔공원,3232A1677,35.129981,129.098097,1
스타벅스 용호빌리브,3232A1678,35.131129,129.112610,1
스타벅스 부산대연못골,3232A1679,35.136095,129.091917,1
스타벅스 부산역라마다,3232A1680,35.114345,129.040306,1
스타벅스 부산역아스티,3232A1681,35.116128,129.041716,1
스타벅스 부산역,3232A1682,35.116348,129.040691,1
스타벅스 범일동일타워,3232A1683,35.138794,129.063954,1
스타벅스 서면중앙대로R,3232A1684,35.152868,129.059446,1
스타벅스 서면로R,3232A1685,35.155249,129.057638,1
스타벅스 양정역,3232A1686,35.170172,129.069274,1
스타벅스 동의대역,3232A1687,35.154951,129.036187,1
스타벅스 부산개금역,3232A1688,35.152982,129.022598,1
스타벅스 서면전포역,3232A1689,35.154365,129.063629,1
스타벅스 부산서면중앙로,3232A1690,35.155490,129.058953,1
스타벅스 서면서전로,3232A1691,35.157919,129.061952,1
스타벅스 부산서면,3232A1692,35.154098,129.061562,1
스타벅스 서면역,3232A1693,35.157894,129.060001,1
스타벅스 부전역,3232A1694,35.161811,129.062015,1
스타벅스 서면센트럴스퀘어,3232A1695,35.151618,129.060899,1
스타벅스 서면메디컬거리,3232A1696,35.157961,129.057410,1
스타벅스 서면중앙,3232A1697,35.156854,129.057980,1
스타벅스 서면트레이더스,3232A1698,35.163831,129.053040,1
스타벅스 초읍대공원,3232A1699,35.182819,129.047484,1
스타벅스 서면엠디엠타워,3232A1700,35.149539,129.058888,1
스타벅스 서면문화로,3232A1701,35.158858,129.057496,1
스타벅스 부산덕천역,3232A1702,35.210787,129.008358,1
스타벅스 부산화명역,3232A1703,35.233675,129.013188,1
스타벅스 화명강변DT,3232A1704,35.216972,129.004611,1
스타벅스 부산구남역DT,3232A1705,35.198241,128.996280,1
스타벅스 부산만덕DT,3232A1706,35.213166,129.039764,1
스타벅스 사상주례DT,3232A1707,35.154847,128.996302,1
스타벅스 동서대DT,3232A1708,35.150863,129.010026,1
스타벅스 사상역,3232A1709,35.164003,128.983473,1
스타벅스 부산사상로,3232A1710,35.162971,128.984587,1
스타벅스 삼락강변DT,3232A1711,35.176685,128.976710,1
스타벅스 사상엄궁DT,3232A1712,35.127533,128.969588,1
스타벅스 사상이마트,3232A1713,35.164229,128.978905,1
스타벅스 다대포비치,3232A1714,35.049127,128.963567,1
스타벅스 다대포DT,3232A1715,35.060973,128.975257,1
스타벅스 을숙도강변DT,3232A1716,35.115260,128.959578,1
스타벅스 부산괴정역,3232A1717,35.098382,128.994195,1
스타벅스 하단중앙,3232A1718,35.106522,128.966103,1
스타벅스 사하장림DT,3232A1719,35.084934,128.980221,1
스타벅스 부산교대역DT,3232A1720,35.198904,129.078931,1
스타벅스 연산시티타워,3232A1721,35.188051,129.080828,1
스타벅스 부산연산역,3232A1722,35.187082,129.083185,1
스타벅스 부산교대,3232A1723,35.195685,129.077450,1
스타벅스 연산트레이더스,3232A1724,35.184911,129.112509,1
스타벅스 연산교차로,3232A1725,35.185395,129.081611,1
스타벅스 부산시청,3232A1726,35.181590,129.078410,1
스타벅스 연제이마트,3232A1727,35.175746,129.081741,1
스타벅스 영도청학DT,3232A1728,35.093885,129.065171,1
스타벅스 영도대교,3232A1729,35.094678,129.037184,1
스타벅스 부산광복로,3232A1730,35.100123,129.031422,1
스타벅스 자갈치역,3232A1731,35.098378,129.029716,1
스타벅스 국제시장,3232A1732,35.102783,129.028601,1
스타벅스 부산중앙역,3232A1733,35.105055,129.035960,1
스타벅스 남포동역,3232A1734,35.098311,129.035151,1
스타벅스 부산비프광장,3232A1735,35.098937,129.028743,1
스타벅스 기장역DT,3232A1736,35.242151,129.220117,1
스타벅스 동부산DT,3232A1737,35.184073,129.210875,1
스타벅스 부산정관,3232A1738,35.321336,129.176983,1
스타벅스 기장일광DT,3232A1739,35.257243,129.225134,1
스타벅스 부산P.아울렛,3232A1740,35.322702,129.235415,1
스타벅스 동부산테마파크,3232A1741,35.193583,129.214219,1
스타벅스 정관신도시DT,3232A1742,35.334446,129.170727,1
스타벅스 기장임랑원,3232A1743,35.316453,129.260928,1
스타벅스 광안수변공원,3232A1744,35.153217,129.124616,1
스타벅스 수영역,3232A1745,35.165737,129.114575,1
스타벅스 금련산역,3232A1746,35.147170,129.110500,1
스타벅스 광안비치,3232A1747,35.153174,129.117849,1
스타벅스 수영망미DT,3232A1748,35.177411,129.107428,1
스타벅스 광안리,3232A1749,35.155028,129.120841,1
스타벅스 남천,3232A1750,35.148306,129.114171,1
스타벅스 남천더샵,3232A1751,35.141257,129.106706,1
스타벅스 밀락더마켓,3232A1752,35.154003,129.127274,1
스타벅스 스타필드명지,3232A1753,35.093468,128.917432,1
스타벅스 명지강변DT,3232A1754,35.102624,128.929480,1
스타벅스 명지국제신도시,3232A1755,35.097800,128.920300,1
스타벅스 명지오션시티,3232A1756,35.084043,128.903135,1
스타벅스 강서녹산DT,3232A1757,35.112862,128.879644,1
스타벅스 명지퍼스트월드,3232A1758,35.097240,128.906662,1
스타벅스 동래역,3232A1759,35.205579,129.080117,1
스타벅스 명륜역,3232A1760,35.212443,129.078378,1
스타벅스 사직구장,3232A1761,35.196193,129.061605,1
스타벅스 부산안락DT,3232A1762,35.195860,129.106954,1
스타벅스 동래미남DT,3232A1763,35.207196,129.072025,1
스타벅스 부산사직,3232A1764,35.197912,129.060550,1
스타벅스 부산온천장역,3232A1765,35.221375,129.085953,1
스타벅스 부산동래,3232A1766,35.202928,129.081029,1
스타벅스 동래허심청,3232A1767,35.220762,129.082723,1
스타벅스 부산미남역,3232A1768,35.205609,129.067761,1
스타벅스 부산송도해수욕장,3232A1769,35.077315,129.017874,1
스타벅스 부민사거리,3232A1770,35.103629,129.020220,1
스타벅스 부산동대신역,3232A1771,35.112688,129.016686,1
스타벅스 동아대병원,3232A1772,35.119519,129.017277,1
스타벅스 해운대동백,3232A1773,35.158371,129.153065,1
스타벅스 수영강변DT,3232A1774,35.203889,129.119336,1
스타벅스 센텀파크,3232A1775,35.178759,129.122541,1
스타벅스 해운대역,3232A1776,35.163145,129.159593,1
스타벅스 부산재송DT,3232A1777,35.181271,129.124050,1
스타벅스 해운대,3232A1778,35.160110,129.162135,1
스타벅스 센텀로,3232A1779,35.167836,129.131539,1
스타벅스 센텀신세계B1,3232A1780,35.168703,129.129747,1
스타벅스 해운대달맞이DT,3232A1781,35.161561,129.171183,1
스타벅스 센텀그린타워,3232A1782,35.174668,129.126697,1
스타벅스 부산송정비치,3232A1783,35.180728,129.202277,1
스타벅스 장산역,3232A1784,35.169380,129.176351,1
스타벅스 하버타운,3232A1785,35.159622,129.159708,1
스타벅스 벡스코,3232A1786,35.168847,129.135444,1
스타벅스 팔레드시즈,3232A1787,35.160023,129.166006,1
스타벅스 제니스스퀘어,3232A1788,35.156657,129.144091,1
스타벅스 마린시티아이파크,3232A1789,35.156919,129.143500,1
스타벅스 해운대달맞이,3232A1790,35.157925,129.182307,1
스타벅스 해운대이마트,3232A1791,35.166029,129.167397,1
스타벅스 센텀드림월드,3232A1792,35.167027,129.132829,1
스타벅스 센텀KNN,3232A1793,35.171916,129.128514,1
스타벅스 월드마크센텀,3232A1794,35.171370,129.131112,1
스타벅스 엘시티,3232A1795,35.159994,129.168617,1
스타벅스 해운대NC,3232A1796,35.170307,129.177064,1
스타벅스 해운대좌동,3232A1797,35.177594,129.175590,1
스타벅스 해운대 엑스더스카이,3232A1798,35.159772,129.169698,1
스타벅스 부산성모안과병원,3232A1799,35.167491,129.140791,1
스타벅스 센텀신세계3F,3232A1800,35.169063,129.129066,1
스타벅스 해운대중동역,3232A1801,35.167185,129.167886,1
스타벅스 센텀몰1F,3232A1802,35.169936,129.128342,1
스타벅스 그랜드조선 부산,3232A1803,35.160064,129.163176,1
스타벅스 울산대공원,3232A1804,35.532330,129.293827,1
스타벅스 울산도산사거리DT,3232A1805,35.530942,129.330232,1
스타벅스 울산시청사거리DT,3232A1806,35.537195,129.313617,1
스타벅스 울산남구청DT,3232A1807,35.544155,129.324600,1
스타벅스 울산중리사거리DT,3232A1808,35.543928,129.338651,1
스타벅스 울산센트럴,3232A1809,35.538794,129.332361,1
스타벅스 울산삼산로,3232A1810,35.538484,129.337303,1
스타벅스 울산대,3232A1811,35.542467,129.260197,1
스타벅스 울산디자인거리,3232A1812,35.540501,129.338760,1
스타벅스 울산신복,3232A1813,35.548095,129.262773,1
스타벅스 울산태화강역DT,3232A1814,35.540198,129.348696,1
스타벅스 울산번영로DT,3232A1815,35.535413,129.329300,1
스타벅스 울산삼성,3232A1816,35.534381,129.317056,1
스타벅스 울산신정DT,3232A1817,35.533612,129.301121,1
스타벅스 울산호계DT,3232A1818,35.637916,129.345040,1
스타벅스 울산북구청DT,3232A1819,35.583486,129.358905,1
스타벅스 울산진장,3232A1820,35.562630,129.356469,1
스타벅스 울산정자비치DT,3232A1821,35.627412,129.441114,1
스타벅스 울산화봉,3232A1822,35.588615,129.367334,1
스타벅스 북울산삼성,3232A1823,35.576501,129.355890,1
스타벅스 울산송정,3232A1824,35.602613,129.365235,1
스타벅스 울산 KTX,3232A1825,35.547868,129.141895,1
스타벅스 울산간절곶DT,3232A1826,35.358212,129.355621,1
스타벅스 울산MBC DT,3232A1827,35.561657,129.332358,1
스타벅스 울산성안,3232A1828,35.577829,129.324413,1
스타벅스 울산성남삼거리,3232A1829,35.553215,129.320479,1
스타벅스 울산병영,3232A1830,35.568536,129.345381,1
스타벅스 울산약사DT,3232A1831,35.573151,129.337371,1
스타벅스 울산국가정원,3232A1832,35.550103,129.297399,1
스타벅스 현대동구,3232A1833,35.521150,129.431734,1
스타벅스 울산일산비치DT,3232A1834,35.498864,129.430994,1
스타벅스 울산대학교병원,3232A1835,35.520641,129.428935,1
스타벅스 울산남목DT,3232A1836,35.539784,129.423424,1
스타벅스 울산주전비치,3232A1837,35.565444,129.454821,1
스타벅스 경인교대입구역DT,3232A1838,37.535548,126.722253,1
스타벅스 인천계양,3232A1839,37.539929,126.735009,1
스타벅스 인천작전,3232A1840,37.527035,126.722050,1
스타벅스 인천계산역DT,3232A1841,37.543618,126.729850,1
스타벅스 계양BMW,3232A1842,37.532265,126.756468,1
스타벅스 계양구청,3232A1843,37.538786,126.738656,1
스타벅스 인천학익DT,3232A1844,37.440466,126.662967,1
스타벅스 인천용현DT,3232A1845,37.452337,126.632581,1
스타벅스 주안역,3232A1846,37.463861,126.680710,1
스타벅스 인하대,3232A1847,37.451827,126.654969,1
스타벅스 시민공원역,3232A1848,37.458158,126.681014,1
스타벅스 인천관교DT,3232A1849,37.441873,126.693107,1
스타벅스 제물포역DT,3232A1850,37.466522,126.654075,1
스타벅스 인천주안DT,3232A1851,37.451356,126.685899,1
스타벅스 인천도화DT,3232A1852,37.470518,126.667229,1
스타벅스 인하대역,3232A1853,37.447689,126.649385,1
스타벅스 SSG랜더스필드2F,3232A1854,37.436624,126.692362,1
스타벅스 SSG랜더스필드1F,3232A1855,37.437035,126.692570,1
스타벅스 인천용일사거리DT,3232A1856,37.453685,126.668273,1
스타벅스 송림트레이더스,3232A1857,37.482517,126.660257,1
스타벅스 인천갈산DT,3232A1858,37.518911,126.732116,1
스타벅스 인천삼산,3232A1859,37.507215,126.734350,1
스타벅스 부평사거리,3232A1860,37.493818,126.722024,1
스타벅스 부평시장역,3232A1861,37.497025,126.722806,1
스타벅스 부평,3232A1862,37.491618,126.724514,1
스타벅스 부평역,3232A1863,37.491511,126.722123,1
스타벅스 인천테크노밸리,3232A1864,37.514990,126.726501,1
스타벅스 인천성모병원,3232A1865,37.485289,126.725837,1
스타벅스 인천경원대로DT,3232A1866,37.480168,126.698428,1
스타벅스 인천스퀘어원,3232A1867,37.405903,126.682509,1
스타벅스 인천동춘DT,3232A1868,37.412430,126.664447,1
스타벅스 인천송도,3232A1869,37.396585,126.651554,1
스타벅스 송도트리플R,3232A1870,37.380590,126.659167,1
스타벅스 인천송도DT,3232A1871,37.384821,126.644284,1
스타벅스 인천연수,3232A1872,37.415072,126.677781,1
스타벅스 송도캠퍼스타운역,3232A1873,37.387428,126.663648,1
스타벅스 송도커넬워크,3232A1874,37.398902,126.636404,1
스타벅스 송도센트럴파크,3232A1875,37.394656,126.641515,1
스타벅스 연수이마트,3232A1876,37.404386,126.681528,1
스타벅스 삼성바이오로직스,3232A1877,37.366789,126.659312,1
스타벅스 쉐라톤그랜드인천,3232A1878,37.390205,126.645501,1
스타벅스 송도호반써밋,3232A1879,37.415508,126.624129,1
스타벅스 인천옥련DT,3232A1880,37.421305,126.645169,1
스타벅스 송도캐슬파크,3232A1881,37.384548,126.641199,1
스타벅스 송도첨단대로,3232A1882,37.370448,126.650399,1
스타벅스 송도현대아울렛,3232A1883,37.381314,126.657929,1
스타벅스 송도컨벤시아대로DT,3232A1884,37.382904,126.636972,1
스타벅스 검단사거리역,3232A1885,37.602526,126.657419,1
스타벅스 인천청라센트럴,3232A1886,37.534356,126.649286,1
스타벅스 인천청라한신,3232A1887,37.532095,126.647078,1
스타벅스 인천당하DT,3232A1888,37.593418,126.675556,1
스타벅스 인천청라타워돔,3232A1889,37.534059,126.652344,1
스타벅스 인천서구청DT,3232A1890,37.542416,126.676360,1
스타벅스 인천청라,3232A1891,37.531943,126.652269,1
스타벅스 인천검단DT,3232A1892,37.616850,126.688700,1
스타벅스 루원시티,3232A1893,37.522948,126.669983,1
스타벅스 인천공촌DT,3232A1894,37.551698,126.685352,1
스타벅스 루원앨리스빌,3232A1895,37.521372,126.677538,1
스타벅스 에이펙스청라,3232A1896,37.532505,126.640113,1
스타벅스 인천청라DT,3232A1897,37.541413,126.647031,1
스타벅스 검단신도시,3232A1898,37.592610,126.712776,1
스타벅스 부평삼거리역DT,3232A1899,37.476627,126.710214,1
스타벅스 인천구월아시아드,3232A1900,37.442715,126.708511,1
스타벅스 인천터미널사거리,3232A1901,37.445260,126.700865,1
스타벅스 인천서창,3232A1902,37.424128,126.749997,1
스타벅스 인천간석DT,3232A1903,37.469719,126.690745,1
스타벅스 인천예술회관역,3232A1904,37.449472,126.701438,1
스타벅스 구월로데오,3232A1905,37.444201,126.702176,1
스타벅스 구월길병원,3232A1906,37.451674,126.707490,1
스타벅스 인천구월,3232A1907,37.446200,126.700997,1
스타벅스 인천논현,3232A1908,37.399520,126.724920,1
스타벅스 인천구월중앙,3232A1909,37.455870,126.714960,1
스타벅스 간석중앙공원DT,3232A1910,37.463301,126.700723,1
스타벅스 영종하늘도시,3232A1911,37.489643,126.561410,1
스타벅스 영종도운서역,3232A1912,37.493991,126.492667,1
스타벅스 인천공항중앙,3232A1913,37.449611,126.450031,1
스타벅스 인스파이어리조트,3232A1914,37.465545,126.389622,1
스타벅스 인천공항T2에어,3232A1915,37.465861,126.432822,1
스타벅스 인천공항T2랜드B1,3232A1916,37.469500,126.433066,1
스타벅스 인천공항T1에어4F,3232A1917,37.450192,126.450836,1
스타벅스 동해IC DT,3232A1918,37.528896,129.104412,1
스타벅스 설악쏘라노,3232A1919,38.210523,128.529071,1
스타벅스 속초DT,3232A1920,38.189871,128.584412,1
스타벅스 속초중앙로,3232A1921,38.202593,128.589453,1
스타벅스 영랑호리조트,3232A1922,38.213347,128.577449,1
스타벅스 속초교동DT,3232A1923,38.196641,128.571872,1
스타벅스 속초금호DT,3232A1924,38.209054,128.580487,1
스타벅스 춘천구봉산R,3232A1925,37.888442,127.775979,1
스타벅스 춘천후평DT,3232A1926,37.879435,127.750579,1
스타벅스 춘천석사DT,3232A1927,37.856608,127.739326,1
스타벅스 춘천명동,3232A1928,37.879992,127.727521,1
스타벅스 춘천이마트,3232A1929,37.863695,127.718745,1
스타벅스 강원대,3232A1930,37.872749,127.745062,1
스타벅스 춘천퇴계DT,3232A1931,37.855291,127.726209,1
스타벅스 춘천후석로DT,3232A1932,37.873266,127.752245,1
스타벅스 춘천온의,3232A1933,37.867636,127.720852,1
스타벅스 비발디파크,3232A1934,37.645094,127.682234,1
스타벅스 홍천DT,3232A1935,37.688587,127.877695,1
스타벅스 강릉송정DT,3232A1936,37.771851,128.922839,1
스타벅스 강릉강문해변,3232A1937,37.794712,128.918555,1
스타벅스 강릉교동광장,3232A1938,37.764312,128.877061,1
스타벅스 강릉안목항,3232A1939,37.771376,128.948725,1
스타벅스 강릉IC DT,3232A1940,37.746746,128.872312,1
스타벅스 강릉율곡DT,3232A1941,37.769884,128.892219,1
스타벅스 강릉주문진,3232A1942,37.881130,128.831579,1
스타벅스 강릉중앙로,3232A1943,37.754453,128.896222,1
스타벅스 소노델피노,3232A1944,38.211965,128.494430,1
스타벅스 원주반곡DT,3232A1945,37.319769,127.971709,1
스타벅스 원주명륜DT,3232A1946,37.336007,127.949884,1
스타벅스 원주무실,3232A1947,37.333019,127.930255,1
스타벅스 원주혁신도시,3232A1948,37.323266,127.980932,1
스타벅스 원주터미널,3232A1949,37.343860,127.931117,1
스타벅스 원주시청,3232A1950,37.340718,127.923856,1
스타벅스 오크밸리,3232A1951,37.434175,127.818544,1
스타벅스 원주IC DT,3232A1952,37.379654,127.948884,1
스타벅스 원주단구DT,3232A1953,37.328515,127.953443,1
스타벅스 원주기업도시DT,3232A1954,37.371448,127.871560,1
스타벅스 원주봉화산DT,3232A1955,37.353066,127.922218,1
찌개로돈가스길,1111,35.822565,128.755145,2
가야정,2222,35.823307,128.756087,2
스타벅스 테스트점,12345,37.123000,127.123000,1
스타벅스 테스트점,123245,37.123000,127.123000,1
스타벅스 테스트점,123456,37.123000,127.123000,1
스타벅스 테스트점,,37.123000,127.123000,1
스타벅스 테스트점,   ,37.123000,127.123000,1
스타벅스 테스트점,300999,37.123000,127.123000,1
스타벅스 테스트점,854070,37.123000,127.123000,1
스타벅스 테스트점,534410,37.123000,127.123000,1
스타벅스 테스트점,123,37.123000,127.123000,1
스타벅스 테스트점,852592,37.123000,127.123000,1
스타벅스 테스트점,123412,37.123000,127.123000,1
스타벅스 테스트점,901096,37.123000,127.123000,1
